pdf_company_name,entity_name,normalized_name,address,postcode,address_source,lat,lon,coord_precision
BUNDLE OF JOY ENTERPRISE LIMITED,BUNDLE OF JOY ENTERPRISE LIMITED,BUNDLE OF JOY ENTERPRISE LIMITED,"32 Stud Road, Yaldhurst, Christchurch, 8042, NEW ZEALAND",8042,address_for_service,-43.522048161143,172.525457373134,address_web
Kitchen Guru NZ Limited,KITCHEN GURU NZ LIMITED,KITCHEN GURU NZ LIMITED,"48 Grayson Avenue, Papatoetoe, Auckland, 2104, NEW ZEALAND",2104,public_address,-36.989065505093,174.865332280689,address_web
Toojay Limited,TOOJAY LIMITED,TOOJAY LIMITED,"14 Tui Street, Matamata, Matamata, 3400, NEW ZEALAND",3400,address_for_service,-37.812104107725,175.774288575991,address_web
Truco Limited,TRUCO LIMITED,TRUCO LIMITED,"73 Beechdale Crescent, Pakuranga Heights, Auckland, 2010, NEW ZEALAND",2010,address_for_service,-36.914372773335,174.884327265846,address_web
Singh Brothers Transportation Limited,SINGH BROTHERS TRANSPORTATION LIMITED,SINGH BROTHERS TRANSPORTATION LIMITED,"178a Old Wairoa Road, Papakura, Papakura, 2110, NEW ZEALAND",2110,address_for_service,-37.050963094016,174.959744277857,address_web
Universal Scaffolding Services Limited,UNIVERSAL SCAFFOLDING SERVICES LIMITED,UNIVERSAL SCAFFOLDING SERVICES LIMITED,"62 Topliss Drive, Northcross, Auckland, 0632, NEW ZEALAND",0632,public_address,-36.706842759953,174.727341679264,address_web
Miers Contractors 1995 Limited,MIERS CONTRACTORS (1995) LIMITED,MIERS CONTRACTORS 1995 LIMITED,"198 Butcher Road, Rd 2, Reporoa, 3083, NEW ZEALAND",3083,address_for_service,-38.447069022081,176.296886911754,address_web
Connexionz Limited,CONNEXIONZ LIMITED,CONNEXIONZ LIMITED,"Po Box 9001, Tower Junction, Christchurch, 8149, NEW ZEALAND",8149,public_address,-43.545168573428,172.527162928978,address_web
Unique Enterprises Nz Limited,UNIQUE ENTERPRISES NZ LIMITED,UNIQUE ENTERPRISES NZ LIMITED,"15 Sturdee Road, Manurewa, Auckland, 2102, NEW ZEALAND",2102,address_for_service,-37.01407785854,174.885532248246,address_web
Far North Pastures Limited,FAR NORTH PASTURES LIMITED,FAR NORTH PASTURES LIMITED,"17 Rewi Street, Te Aroha, Te Aroha, 3320, NEW ZEALAND",3320,address_for_service,-37.5282,175.7102,original
MAKO DAIRIES LIMITED,MAKO DAIRIES LIMITED,MAKO DAIRIES LIMITED,"69 Newcastle Street, Riversdale, 9776, NEW ZEALAND",9776,address_for_service,-45.901645243122,168.742261654112,address_web
Vartech Airconditioning Limited,VARTECH AIRCONDITIONING LIMITED,VARTECH AIRCONDITIONING LIMITED,"24 Riviera Drive, Flat Bush, Auckland, 2019, NEW ZEALAND",2019,address_for_service,-36.972260040684,174.914908136667,original
Sea International Limited,SEA INTERNATIONAL LIMITED,SEA INTERNATIONAL LIMITED,"48-52 Wyndham Street. Level 4. Office 4b, Auckland Cbd, Auckland, 1010, NEW ZEALAND",1010,address_for_service,-36.846868236012,174.763421665301,address_web
DHILLON HORTICULTURE LIMITED,DHILLON HORTICULTURE LIMITED,DHILLON HORTICULTURE LIMITED,"8g Cannell Farm Drive, Te Puke, Te Puke, 3119, NEW ZEALAND",3119,address_for_service,-37.789611605829,176.328201199103,address_web
P & S TRANSPORT LIMITED,P & S TRANSPORT LIMITED,P S TRANSPORT LIMITED,"15 Tidal View Road, Karaka, Papakura, 2113, NEW ZEALAND",2113,address_for_service,-37.09787907875,174.937991395098,address_web
Southern Lakes Scaffolds Limited,SOUTHERN LAKES SCAFFOLDS LIMITED,SOUTHERN LAKES SCAFFOLDS LIMITED,"3a / 335 Lincoln Road, Addington, Christchurch, 8024, NEW ZEALAND",8024,address_for_service,-43.542484079275,172.613275159436,address_web
Ideal Housing Limited,IDEAL HOUSING LIMITED,IDEAL HOUSING LIMITED,"49 Headland Drive, Long Bay, Auckland, 0630, NEW ZEALAND",0630,address_for_service,-36.686774262547,174.74219441169,address_web
YI XI TRADING LIMITED,YI XI TRADING LIMITED,YI XI TRADING LIMITED,"53 Pearn Place, Northcote, Auckland, 0627, NEW ZEALAND",0627,address_for_service,-36.801062781445,174.74644441847,address_web
Entelect Software Limited,ENTELECT SOFTWARE LIMITED,ENTELECT SOFTWARE LIMITED,"12/222 Lambton Quay, Wellington Central, Wellington, 6011, NEW ZEALAND",6011,public_address,-41.282864972615,174.775368391897,address_web
CLAIR HOUSE LIMITED,CLAIR HOUSE LIMITED,CLAIR HOUSE LIMITED,"91 Prospect Terrace, Mount Eden, Auckland, 1024, NEW ZEALAND",1024,registered_office,-36.879311817176,174.750843865215,address_web
Waterton Agricultural Limited,WATERTON AGRICULTURAL LIMITED,WATERTON AGRICULTURAL LIMITED,"504 Wairakei Road, Burnside, Christchurch, 8053, NEW ZEALAND",8053,address_for_service,-43.489776199446,172.569406960425,address_web
Dhriya Limited,DHRIYA LIMITED,DHRIYA LIMITED,"2 Laburnum Glen, Mount Maunganui, Mount Maunganui, 3116, NEW ZEALAND",3116,address_for_service,-37.680742963069,176.216466322642,address_web
HONGXIAN NZ LIMITED,HONGXIAN NZ LIMITED,HONGXIAN NZ LIMITED,"18e Neilpark Drive, East Tamaki, Auckland, 2013, NEW ZEALAND",2013,address_for_service,-36.941678666948,174.884023338037,address_web
Leading Flooring Limited,LEADING FLOORING LIMITED,LEADING FLOORING LIMITED,"Flat 11, 7 The Avenue, Albany, Auckland, 0632, NEW ZEALAND",0632,address_for_service,-36.723033453675,174.691296142848,address_web
Meridian Energy Limited,MERIDIAN ENERGY LIMITED,MERIDIAN ENERGY LIMITED,"Level 2, 98 Customhouse Quay, Wellington Central, Wellington, 6011, NEW ZEALAND",6011,public_address,-41.28572647054,174.776436497819,address_web
Anuj Engineering Limited,ANUJ ENGINEERING LIMITED,ANUJ ENGINEERING LIMITED,"19 Warkworth Groves, Bellblock, New Playmouth, 4312, NEW ZEALAND",4312,address_for_service,-39.033684436713,174.14050133626,address_web
R & K HORTICULTURE LIMITED,R & K HORTICULTURE LIMITED,R K HORTICULTURE LIMITED,"118 Puhirake Crescent, Pyes Pa, Tauranga, 3112, NEW ZEALAND",3112,address_for_service,-37.763677955495,176.111315682582,address_web
Napier Collision Repair Centre Limited,NAPIER COLLISION REPAIR CENTRE LIMITED,NAPIER COLLISION REPAIR CENTRE LIMITED,"250 Gloucester Street, Gloucester Court, Taradale, Napier, 4112, NEW ZEALAND",4112,address_for_service,-39.535303162194,176.848931711562,address_web
Commercial Ducting And Hood Service 2020 Limited,COMMERCIAL DUCTING AND HOOD SERVICE 2020 LIMITED,COMMERCIAL DUCTING AND HOOD SERVICE 2020 LIMITED,"Unit 12, 22 Highgate Parkway, Silverdale, Silverdale, 0932, NEW ZEALAND",0932,public_address,-36.611720145034,174.66129236606,address_web
George Weston Foods NZ Limited,GEORGE WESTON FOODS (NZ) LIMITED,GEORGE WESTON FOODS NZ LIMITED,"Bldg 6, Lvl 2, 666 Great South Road, Ellerslie, Auckland, 1051, NEW ZEALAND",1051,registered_office,-36.902443858284,174.807688926723,address_web
Dentons Patent Attorneys Australasia Limited,DENTONS PATENT ATTORNEYS AUSTRALASIA LIMITED,DENTONS PATENT ATTORNEYS AUSTRALASIA LIMITED,"18 Viaduct Harbour Avenue, Auckland Central, Auckland, 1010, NEW ZEALAND",1010,address_for_service,-36.845360876455,174.757768574524,address_web
Shelter Homes Limited,SHELTER HOMES LIMITED,SHELTER HOMES LIMITED,"163a Coatesville-riverhead Highway, Rd 3, Coatesville, 0793, NEW ZEALAND",0793,public_address,-36.715059330089,174.651334916545,address_web
v s naidu limited,V S NAIDU LIMITED,V S NAIDU LIMITED,"16 Spence Road, Henderson, Auckland, 0612, NEW ZEALAND",0612,address_for_service,-36.881282234975,174.61719467054,address_web
IBM New Zealand Limited,IBM NEW ZEALAND LIMITED,IBM NEW ZEALAND LIMITED,"12 Madden Street, Auckland Central, Auckland, 1010, NEW ZEALAND",1010,address_for_service,-36.842069331401,174.756723836596,address_web
RJ freightlines Limited,RJ FREIGHTLINES LIMITED,RJ FREIGHTLINES LIMITED,"10 Hansen Place, Takanini, Takanini, 2112, NEW ZEALAND",2112,address_for_service,-37.037964229024,174.920257886369,address_web
Adam-Pro Limited,ADAM-PRO LIMITED,ADAM PRO LIMITED,"Unit 2, 41 Ambler Avenue, Glen Eden, Auckland, 0602, NEW ZEALAND",0602,address_for_service,-36.917692467998,174.646643816795,address_web
Port Nelson Limited,PORT NELSON LIMITED,PORT NELSON LIMITED,"8 Vickerman Street, Port Nelson, Nelson, 7010, NEW ZEALAND",7010,public_address,-41.266523446546,173.276862135752,address_web
AI HOMES REAL ESTATE LIMITED,AI HOMES REAL ESTATE LIMITED,AI HOMES REAL ESTATE LIMITED,"682 Dominion Road, Mount Eden, Auckland, 1041, NEW ZEALAND",1041,public_address,-36.889969197516,174.74670462997,address_web
Te Wae Wae Dairies Limited,TE WAE WAE DAIRIES LIMITED,TE WAE WAE DAIRIES LIMITED,"101 Don Street, Invercargill, 9810, NEW ZEALAND",9810,address_for_service,-46.410914383089,168.35426687652,address_web
Cheema Brothers Limited,CHEEMA BROTHERS LIMITED,CHEEMA BROTHERS LIMITED,"6 Vos Close, Papamoa Beach, Papamoa, 3118, NEW ZEALAND",3118,address_for_service,-37.714010359586,176.29916662178,address_web
Piano Academy Christchurch Limited,PIANO ACADEMY CHRISTCHURCH LIMITED,PIANO ACADEMY CHRISTCHURCH LIMITED,"5 Eaglesome Avenue, Aidanfield, Christchurch, 8025, NEW ZEALAND",8025,address_for_service,-43.56833889781,172.568464080136,address_web
WORTHY OCEANIA LIMITED,WORTHY OCEANIA LIMITED,WORTHY OCEANIA LIMITED,"106 Lansford Crescent, Avondale, Auckland, 0600, NEW ZEALAND",0600,address_for_service,-36.904113203945,174.699017833126,address_web
Decho Group Limited,DECHO GROUP LIMITED,DECHO GROUP LIMITED,"18 Northcroft Street, Takapuna, Auckland, 0622, NEW ZEALAND",0622,address_for_service,-36.79005733076,174.771109211618,address_web
HAB 2013 LIMITED,HAB 2013 LIMITED,HAB 2013 LIMITED,"162 Dee Street, Invercargill, 9810, NEW ZEALAND",9810,address_for_service,-46.408245627027,168.34691980311,address_web
ASP ELECTRICAL LIMITED,ASP ELECTRICAL LIMITED,ASP ELECTRICAL LIMITED,"Flat 3, 15 Peverel Street, Riccarton, Christchurch, 8011, NEW ZEALAND",8011,address_for_service,-43.533236660777,172.60330128139,address_web
Ayrburn Precinct Limited,AYRBURN PRECINCT LIMITED,AYRBURN PRECINCT LIMITED,"Level 2, 11 Westhaven Drive, Cracker Bay, Auckland, 1010, NEW ZEALAND",1010,address_for_service,-36.843391715942,174.752622756526,address_web
Milk 31842 Limited,MILK 31842 LIMITED,MILK 31842 LIMITED,"Wicksteed Terrace, Wicksteed Street, Wanganui, 4541, NEW ZEALAND",4541,address_for_service,-39.929158797212,175.047375583561,address_web
HEATHTON FARMS LIMITED,HEATHTON FARMS LIMITED,HEATHTON FARMS LIMITED,"Mckenzie Strawbridge, 93 Maniapoto Street, Otorohanga, 3900, NEW ZEALAND",3900,address_for_service,-38.18786562336,175.210690999036,address_web
Kiwi Guru Contracting Limited,KIWI GURU CONTRACTING LIMITED,KIWI GURU CONTRACTING LIMITED,"31 White Street, Fenton Park, Rotorua, 3010, NEW ZEALAND",3010,address_for_service,-38.150822514738,176.261457780498,address_web
Kiwi Rangers Limited,KIWI RANGERS LIMITED,KIWI RANGERS LIMITED,"60b Twelfth Avenue, Tauranga South, Tauranga, 3112, NEW ZEALAND",3112,address_for_service,-37.699613267416,176.157044580279,address_web
GEO ELECTRICS LIMITED,GEO ELECTRICS LIMITED,GEO ELECTRICS LIMITED,"11 Owenbeg Rise, Dannemora, Auckland, 2016, NEW ZEALAND",2016,address_for_service,-36.933779309939,174.924716555944,address_web
Osborne Log Transport Limited,OSBORNE LOG TRANSPORT LIMITED,OSBORNE LOG TRANSPORT LIMITED,"250 Gloucester Street, Gloucester Court, Taradale, Napier, 4112, NEW ZEALAND",4112,address_for_service,-39.535303162194,176.848931711562,address_web
WADERS LIMITED,WADERS LIMITED,WADERS LIMITED,"12c Sunrise Avenue, Mairangi Bay, Auckland, 0630, NEW ZEALAND",0630,address_for_service,-36.736040407203,174.747566205798,address_web
NEW ZEALAND TDSL FORTUNA INTERNATIONAL GROUP LIMITED,NEW ZEALAND TDSL FORTUNA INTERNATIONAL GROUP LIMITED,NEW ZEALAND TDSL FORTUNA INTERNATIONAL GROUP LIMITED,"Apartment 104, 7 Rose Garden Lane, Albany, Auckland, 0632, NEW ZEALAND",0632,public_address,-36.725627778436,174.707005589598,address_web
Golden Contracting Limited,GOLDEN CONTRACTING LIMITED,GOLDEN CONTRACTING LIMITED,"Po Box 263, Silverdale, Silverdale, 0944, NEW ZEALAND",0944,public_address,-36.614577458,174.672689703,address_web
South American Oven limited,SOUTH AMERICAN OVEN LIMITED,SOUTH AMERICAN OVEN LIMITED,"10 Calais Terrace, Ostend, Waiheke Island, 1081, NEW ZEALAND",1081,address_for_service,-36.798590862564,175.050191634824,address_web
ATLAS COPCO (N.Z.) LIMITED,ATLAS COPCO( N.Z.) LIMITED,ATLAS COPCO N Z LIMITED,"8 George Bourke Drive, Mount Wellington, Auckland, 1060, NEW ZEALAND",1060,public_address,-36.925530343747,174.845505810736,address_web
Hud Studio Limited,HUD STUDIO LIMITED,HUD STUDIO LIMITED,"Level 11, 19 Victoria Street West, Auckland Central, Auckland, 1010, NEW ZEALAND",1010,public_address,-36.848661795654,174.764763440362,address_web
Canterbury Vehicle Compliance Limited,CANTERBURY VEHICLE COMPLIANCE LIMITED,CANTERBURY VEHICLE COMPLIANCE LIMITED,"10 Chert Street, Rolleston, Rolleston, 7614, NEW ZEALAND",7614,public_address,-43.605305312018,172.360672844742,address_web
M G M perera limited,M G M PERERA LIMITED,M G M PERERA LIMITED,"111 Hot Water Beach Road, Rd 1, Whitianga, 3591, NEW ZEALAND",3591,address_for_service,-36.9167,175.7,original
Xposure Motors Limited,XPOSURE MOTORS LIMITED,XPOSURE MOTORS LIMITED,"38 East Tamaki Road, Papatoetoe, Auckland, 2025, NEW ZEALAND",2025,address_for_service,-36.967661477145,174.860818039095,address_web
OHOPE BEACH CARE LIMITED,OHOPE BEACH CARE LIMITED,OHOPE BEACH CARE LIMITED,"Unit 10, 76 Portside Drive, Mount Maunganui, Mount Maunganui, 3116, NEW ZEALAND",3116,address_for_service,-37.658922731718,176.195861928256,address_web
Four Seasons Dairies Limited,FOUR SEASONS DAIRIES LIMITED,FOUR SEASONS DAIRIES LIMITED,"123 Union Street, Milton, 9220, NEW ZEALAND",9220,address_for_service,-46.1208,169.9694,original
ODOCS EYE CARE LIMITED,ODOCS EYE CARE LIMITED,ODOCS EYE CARE LIMITED,"25 Mailer Street, Mornington, Dunedin, 9011, NEW ZEALAND",9011,address_for_service,-45.881182712447,170.481020747908,address_web
Direct Control Limited,DIRECT CONTROL LIMITED,DIRECT CONTROL LIMITED,"Po Box 6253, Victoria Street, Auckland, 1142, NEW ZEALAND",1142,public_address,-37.105834709978,174.945359411003,address_web
O B Enterprises Limited,O B ENTERPRISES LIMITED,O B ENTERPRISES LIMITED,"5 Pah Road, Howick Auckland, NEW ZEALAND",,address_for_service,-36.900814164849,174.948613445716,original
Fastvisa Immigration Consultancy Limited,FASTVISA IMMIGRATION CONSULTANCY LIMITED,FASTVISA IMMIGRATION CONSULTANCY LIMITED,"Level 7 175 Queen Street, Auckland Cbd, Auckland, 1010, NEW ZEALAND",1010,address_for_service,-36.848090149857,174.765369954875,address_web
GREENHILLS DAIRY LIMITED,GREENHILLS DAIRY LIMITED,GREENHILLS DAIRY LIMITED,"39 George Street, Timaru, Timaru, 7910, NEW ZEALAND",7910,public_address,-44.397159756346,171.253506248469,address_web
ES PAINTING LIMITED,ES PAINTING LIMITED,ES PAINTING LIMITED,"38 Gardner Avenue, New Lynn, Auckland, 0600, NEW ZEALAND",0600,address_for_service,-36.916249565275,174.677911500762,address_web
Virscient Limited,VIRSCIENT LIMITED,VIRSCIENT LIMITED,"Skypoint Building, Level 1, 3 Melody Lane, Hamilton East, Hamilton, 3216, NEW ZEALAND",3216,registered_office,-37.777521768094,175.310646829532,address_web
BRUSH AND COLOURS LIMITED,BRUSH AND COLOURS LIMITED,BRUSH AND COLOURS LIMITED,"19 York Place, Cannons Creek, Porirua, 5024, NEW ZEALAND",5024,address_for_service,-41.13381621015,174.860041204309,address_web
LISA'S HAIR & NAIL LIMITED,LISA'S HAIR & NAIL LIMITED,LISA S HAIR NAIL LIMITED,"42 Vivian Street, Te Aro, Wellington, 6011, NEW ZEALAND",6011,public_address,-41.296280041009,174.779881711481,address_web
Karpentero Nz Limited,KARPENTERO NZ LIMITED,KARPENTERO NZ LIMITED,"23 Dissmeyer Drive, Clover Park, Auckland, 2019, NEW ZEALAND",2019,public_address,-36.980412237803,174.897638817736,original
YJC Building Solutions Limited,YJC BUILDING SOLUTIONS LIMITED,YJC BUILDING SOLUTIONS LIMITED,"12 Ranfurly Road, Alfriston, Auckland, 2105, NEW ZEALAND",2105,address_for_service,-37.014819950338,174.922850325202,address_web
King-Kong Garage Door Limited,KING-KONG GARAGE DOOR LIMITED,KING KONG GARAGE DOOR LIMITED,"79 San Valentino Drive, Henderson, Auckland, 0612, NEW ZEALAND",0612,address_for_service,-36.891848923122,174.610367694223,address_web
Elite Goat Milk Limited,ELITE GOAT MILK LIMITED,ELITE GOAT MILK LIMITED,"109 Ward Street, Hamilton Central, Hamilton, 3204, NEW ZEALAND",3204,address_for_service,-37.787573489778,175.278933690657,address_web
Savvy Security Limited,SAVVY SECURITY LIMITED,SAVVY SECURITY LIMITED,"Unit 7, 3 Inanga Street, Hobsonville, Auckland, 0618, NEW ZEALAND",0618,address_for_service,-36.807982449796,174.63279163215,address_web
I SHREE LIMITED,I SHREE LIMITED,I SHREE LIMITED,"47 Toanui Road, Hobsonville, Auckland, 0618, NEW ZEALAND",0618,address_for_service,-36.80173449535,174.665009991576,address_web
JK&L9 DECORATION LIMITED,JK&L9 DECORATION LIMITED,JK L9 DECORATION LIMITED,"7 Blyton Lane, Pakuranga Heights, Auckland, 2010, NEW ZEALAND",2010,address_for_service,-36.917549053634,174.887421110127,address_web
Autobits Wellington Limited,AUTOBITS WELLINGTON LIMITED,AUTOBITS WELLINGTON LIMITED,"5 Balgownie Grove, Nae Nae, Lower Hutt, 5011, NEW ZEALAND",5011,address_for_service,-41.206143233555,174.942923642203,address_web
Emaarat IT Limited,EMAARAT IT LIMITED,EMAARAT IT LIMITED,"34 Exler Place, Avondale, Auckland, 0600, NEW ZEALAND",0600,address_for_service,-36.903426468793,174.703250580795,address_web
Steel & Tube Holdings Limited,STEEL & TUBE HOLDINGS LIMITED,STEEL TUBE HOLDINGS LIMITED,"7 Bruce Roderick Drive, East Tamaki, Auckland, 2013, NEW ZEALAND",2013,public_address,-36.936341112916,174.888425094489,address_web
Kayel Limited,KAYEL LIMITED,KAYEL LIMITED,"14 Karamu Crescent, Wainuiomata, Lower Hutt, 5014, NEW ZEALAND",5014,address_for_service,-41.256014216345,174.936129606765,address_web
Pure Cleaning Services Limited,PURE CLEANING SERVICES LIMITED,PURE CLEANING SERVICES LIMITED,"757 Coatesville-riverhead Highway, Rd 3, Riverhead, 0793, NEW ZEALAND",0793,address_for_service,-36.749974063947,174.617991370437,address_web
Transport & General Engineering Co Limited,TRANSPORT & GENERAL ENGINEERING CO LIMITED,TRANSPORT GENERAL ENGINEERING CO LIMITED,"Level 3, 24 Anzac Parade, Hamilton East, Hamilton, 3216, NEW ZEALAND",3216,address_for_service,-37.790952416971,175.291267994461,address_web
UNICON CONSTRUCTION LIMITED,UNICON CONSTRUCTION LIMITED,UNICON CONSTRUCTION LIMITED,"139 The Drive, Epsom, Auckland, 1023, NEW ZEALAND",1023,address_for_service,-36.898928110906,174.767588225551,address_web
MALEY MECHANICAL LIMITED,MALEY MECHANICAL LIMITED,MALEY MECHANICAL LIMITED,"Level 1 Caro House, 137 Alexandra Street, Hamilton, 3204, NEW ZEALAND",3204,address_for_service,-37.788410060009,175.281960812994,address_web
The Red & Black Scaffolding Company Limited,THE RED & BLACK SCAFFOLDING COMPANY LIMITED,THE RED BLACK SCAFFOLDING COMPANY LIMITED,"99 Holly Road, Merivale, Christchurch, 8014, NEW ZEALAND",8014,address_for_service,-43.515594556702,172.63126104727,address_web
STAR REFRIGERATION & AIR CONDITIONING LIMITED,STAR REFRIGERATION & AIR CONDITIONING LIMITED,STAR REFRIGERATION AIR CONDITIONING LIMITED,"Flat 3, 1a Castor Bay Road, Castor Bay, Auckland, 0620, NEW ZEALAND",0620,address_for_service,-36.761476130579,174.757015628161,address_web
CONTAINER MOVERS LIMITED,CONTAINER MOVERS LIMITED,CONTAINER MOVERS LIMITED,"28 Empire Street, Frankton, Hamilton, 3204, NEW ZEALAND",3204,address_for_service,-37.786378496227,175.261472088872,address_web
DE VRIES ELECTRICAL LIMITED,DE VRIES ELECTRICAL LIMITED,DE VRIES ELECTRICAL LIMITED,"Floor 3, 47 Salisbury Street, Christchurch Central, Christchurch, 8013, NEW ZEALAND",8013,address_for_service,-43.5243755431,172.630778369353,address_web
PRECISE CONSULTING LIMITED,PRECISE CONSULTING LIMITED,PRECISE CONSULTING LIMITED,"49a Patons Road, Howick, Auckland, 2014, NEW ZEALAND",2014,address_for_service,-36.893851569339,174.918392326179,address_web
WGD LIMITED,WGD LIMITED,WGD LIMITED,"11 Ride Way, Rosedale, Auckland, 0632, NEW ZEALAND",0632,public_address,-36.752393165022,174.702590338282,address_web
Project Path Limited,PROJECT PATH LIMITED,PROJECT PATH LIMITED,"16 Hogarth Rise, West Harbour, Auckland, 0618, NEW ZEALAND",0618,address_for_service,-36.818596914792,174.633133949075,address_web
WELKIN HOMES LIMITED,WELKIN HOMES LIMITED,WELKIN HOMES LIMITED,"111a Salamanca Road, Sunnynook, Auckland, 0620, NEW ZEALAND",0620,address_for_service,-36.753060280696,174.730831652289,address_web
Green to Cream Limited,GREEN TO CREAM LIMITED,GREEN TO CREAM LIMITED,"93 Maniapoto Street, Otorohanga, Otorohanga, 3900, NEW ZEALAND",3900,address_for_service,-38.18786562336,175.210690999036,address_web
SAIF TRANSPORT LIMITED,SAIF TRANSPORT LIMITED,SAIF TRANSPORT LIMITED,"22 Prosser Street, Elsdon, Porirua, 5240, NEW ZEALAND",5240,address_for_service,-41.1383,174.8402,original
ASB Bank Limited,ASB BANK LIMITED,ASB BANK LIMITED,"Level 2, Asb North Wharf, 12 Jellicoe Street, Auckland, 1010, NEW ZEALAND",1010,public_address,-36.84137565868,174.757469256761,address_web
Ronson Transport Limited,RONSON TRANSPORT LIMITED,RONSON TRANSPORT LIMITED,"94 Pepene Avenue, Takanini, Takanini, 2112, NEW ZEALAND",2112,address_for_service,-37.04172506325,174.903903955083,address_web
Liquip Sales (Nz) Limited,LIQUIP SALES (NZ) LIMITED,LIQUIP SALES NZ LIMITED,"90 Sydney Street, Petone, Lower Hutt, 5012, NEW ZEALAND",5012,public_address,-41.221848950359,174.877468438296,address_web
THAI ON LUNN LIMITED,THAI ON LUNN LIMITED,THAI ON LUNN LIMITED,"2 Percy Winston Lane, Stonefields, Auckland, 1072, NEW ZEALAND",1072,address_for_service,-36.888957208436,174.834410182589,address_web
Franklin Smith Limited,FRANKLIN SMITH LIMITED,FRANKLIN SMITH LIMITED,"Level 16, 51 Shortland Street, Auckland, 1010, NEW ZEALAND",1010,address_for_service,-36.847109341457,174.76823405119,address_web
Akshar Limited,AKSHAR LIMITED,AKSHAR LIMITED,"209 Beach Haven Road, Beach Haven, Auckland, 0626, NEW ZEALAND",0626,public_address,-36.789514309163,174.694914610449,address_web
PETROMONT FISHING COMPANY LIMITED,PETROMONT FISHING COMPANY LIMITED,PETROMONT FISHING COMPANY LIMITED,"Level 3, 16 College Hill, Freemans Bay, Auckland, 1011, NEW ZEALAND",1011,address_for_service,-36.848559745983,174.749746003537,address_web
iFix Nz Limited,IFIX NZ LIMITED,IFIX NZ LIMITED,"179 Symonds Street, Eden Terrace, Auckland, 1010, NEW ZEALAND",1010,address_for_service,-36.862891333579,174.761016645823,address_web
KAD Saini Limited,KAD SAINI LIMITED,KAD SAINI LIMITED,"13 Treloar Crescent, Hobsonville, Auckland, 0616, NEW ZEALAND",0616,address_for_service,-36.8023508586,174.670842874176,original
Appleby Fresh Limited,APPLEBY FRESH LIMITED,APPLEBY FRESH LIMITED,"Level 1, 15 Bridge Street, Nelson, Nelson, 7010, NEW ZEALAND",7010,address_for_service,-41.272336631674,173.281903179959,address_web
RELIABLE BUILDER LIMITED,RELIABLE BUILDER LIMITED,RELIABLE BUILDER LIMITED,"Level 2, 86 Lunn Avenue, Mount Wellington, Auckland, 1072, NEW ZEALAND",1072,registered_office,-36.89098089323,174.832521572165,address_web
Enable Networks Limited,ENABLE NETWORKS LIMITED,ENABLE NETWORKS LIMITED,"Level 3, 93 Cambridge Terrace, Christchurch Central, Christchurch, 8013, NEW ZEALAND",8013,public_address,-43.532734584777,172.632252291139,address_web
Qube Logistics Limited,QUBE LOGISTICS LIMITED,QUBE LOGISTICS LIMITED,"Po Box 908, Wellington, Wellington, 6140, NEW ZEALAND",6140,public_address,-41.284893524,174.776100466,address_web
Pure Wagyu Gourmet Meats Limited,PURE WAGYU GOURMET MEATS LIMITED,PURE WAGYU GOURMET MEATS LIMITED,"114b Bryant Rd, Karaka, 2580, NEW ZEALAND",2580,address_for_service,-37.082006729712,174.841830430013,address_web
Vintech Pacific Limited,VINTECH PACIFIC LIMITED,VINTECH PACIFIC LIMITED,"71 Hansen Road, Gisborne, 4071, NEW ZEALAND",4071,address_for_service,-38.633780734909,177.98434238787,address_web
Kwongson Foods & Trading Limited,KWONGSON FOODS & TRADING LIMITED,KWONGSON FOODS TRADING LIMITED,"22 Alderman Place, Mangere, Auckland, 2024, NEW ZEALAND",2024,public_address,-36.955752301475,174.833891175144,address_web
Olympus New Zealand Limited,OLYMPUS NEW ZEALAND LIMITED,OLYMPUS NEW ZEALAND LIMITED,"28 Corinthian Drive, Albany, Auckland, 0632, AUSTRALIA",0632,public_address,-36.730605748822,174.713419505727,address_web
Taupo Painting Services Limited,TAUPO PAINTING SERVICES LIMITED,TAUPO PAINTING SERVICES LIMITED,"Kaimanawa House, 74 Kaimanawa Street, Taupo, 3330, NEW ZEALAND",3330,address_for_service,-38.685426543786,176.078137343786,address_web
Sangao Future Limited,SANGAO FUTURE LIMITED,SANGAO FUTURE LIMITED,"272 Redoubt Road, Totara Park, Auckland, 2019, NEW ZEALAND",2019,address_for_service,-36.993290696756,174.917861248794,original
LUXOTTICA RETAIL NEW ZEALAND LIMITED,LUXOTTICA RETAIL NEW ZEALAND LIMITED,LUXOTTICA RETAIL NEW ZEALAND LIMITED,"Deloitte Centre, Level 5, 1 Queen Street, Auckland, 1010, NEW ZEALAND",1010,address_for_service,-36.843475325426,174.766886744074,address_web
Total Harvesting Limited,TOTAL HARVESTING LIMITED,TOTAL HARVESTING LIMITED,"45 Maclaggan Street, Dunedin Central, Dunedin, 9016, NEW ZEALAND",9016,address_for_service,-45.877784395534,170.498558539198,address_web
SHREE GANESH TRADING LIMITED,SHREE GANESH TRADING LIMITED,SHREE GANESH TRADING LIMITED,"2c Clinker Place, New Lynn, Auckland, 0600, NEW ZEALAND",0600,public_address,-36.914009375923,174.687110974773,address_web
L T McGuinness Limited,L T MCGUINNESS LIMITED,L T MCGUINNESS LIMITED,"9 Francis Place, Wellington, NEW ZEALAND",,address_for_service,-41.297845529065,174.779479463948,original
GARTERY DAIRY FARMS LIMITED,GARTERY DAIRY FARMS LIMITED,GARTERY DAIRY FARMS LIMITED,"267 High Street, Rangiora, Rangiora, 7400, NEW ZEALAND",7400,address_for_service,-43.304101537589,172.591137463502,address_web
EMSBA PASTURES LIMITED,EMSBA PASTURES LIMITED,EMSBA PASTURES LIMITED,"42 Moorhouse Street, Morrinsville, 3300, NEW ZEALAND",3300,address_for_service,-37.658060443428,175.530059112017,address_web
Vendale Limited,VENDALE LIMITED,VENDALE LIMITED,"761 Dipton Winton Highway, Rd 1, Dipton, 9791, NEW ZEALAND",9791,public_address,-45.962432062236,168.338225254947,address_web
NZ CARS AND AUTOMOTIVE LIMITED,NZ CARS AND AUTOMOTIVE LIMITED,NZ CARS AND AUTOMOTIVE LIMITED,"6 Manu Street, Favona, Auckland, 2024, NEW ZEALAND",2024,public_address,-36.948048694724,174.830468892902,address_web
CITYWIDE TRANSPORT LIMITED,CITYWIDE TRANSPORT LIMITED,CITYWIDE TRANSPORT LIMITED,"Suitea/39 East Tamaki Road, Papatoetoe, Auckland, 2025, NEW ZEALAND",2025,address_for_service,-36.968044613939,174.861340231663,address_web
SHERRIFF FARMS LIMITED,SHERRIFF FARMS LIMITED,SHERRIFF FARMS LIMITED,"39 George Street, Timaru, 7910, NEW ZEALAND",7910,address_for_service,-44.397159756346,171.253506248469,address_web
Jarvis Advanced Accounting Solutions Limited,JARVIS ADVANCED ACCOUNTING SOLUTIONS LIMITED,JARVIS ADVANCED ACCOUNTING SOLUTIONS LIMITED,"239 Opawa Road, Hillsborough, Christchurch, 8022, NEW ZEALAND",8022,address_for_service,-43.558647447991,172.673144998342,address_web
Dunsandel Farms Limited,DUNSANDEL FARMS LIMITED,DUNSANDEL FARMS LIMITED,"109 Powderham Street, New Plymouth, New Plymouth, 4310, NEW ZEALAND",4310,address_for_service,-39.060198114747,174.069932668502,address_web
Saskia Dairies Limited,SASKIA DAIRIES LIMITED,SASKIA DAIRIES LIMITED,"25 Victoria Avenue, Avenal, Invercargill, 9810, NEW ZEALAND",9810,address_for_service,-46.40580154788,168.344076661553,address_web
CHANS PAINT LIMITED,CHANS PAINT LIMITED,CHANS PAINT LIMITED,"13 Galsworthy Place, Bucklands Beach, Auckland, 2014, NEW ZEALAND",2014,address_for_service,-36.884878951537,174.911582365125,address_web
True Trade Services Limited,TRUE TRADE SERVICES LIMITED,TRUE TRADE SERVICES LIMITED,"6 Charles Miller Court, Clarks Beach, Clarks Beach, 2122, NEW ZEALAND",2122,address_for_service,-37.137176877417,174.696453444053,address_web
STRONGVAC LIMITED,STRONGVAC LIMITED,STRONGVAC LIMITED,"355 East Tamaki Road, East Tamaki, Auckland, 2013, NEW ZEALAND",2013,address_for_service,-36.953822096581,174.893253555018,address_web
CRAIG MAISEY BUILDERS AND GLASS LIMITED,CRAIG MAISEY BUILDERS AND GLASS LIMITED,CRAIG MAISEY BUILDERS AND GLASS LIMITED,"68 Okahu Downs Drive, Kaitaia, 0481, NEW ZEALAND",0481,public_address,-35.132581407732,173.258516077538,address_web
Josan Family Group Limited,JOSAN FAMILY GROUP LIMITED,JOSAN FAMILY GROUP LIMITED,"62 Harveys Road, Rd 9c, Island Cliff, Oamaru, 9491, NEW ZEALAND",9491,address_for_service,-44.914455322975,170.68639698936,address_web
Universal Specialities Limited,UNIVERSAL SPECIALITIES LIMITED,UNIVERSAL SPECIALITIES LIMITED,"494 Rosebank Road, Avondale, Auckland, 1026, NEW ZEALAND",1026,public_address,-36.879394462742,174.671339585758,address_web
SINGH ON KIWI LIMITED,SINGH ON KIWI LIMITED,SINGH ON KIWI LIMITED,"1 Carroll Place, Owhata, Rotorua, 3010, NEW ZEALAND",3010,address_for_service,-38.136108879995,176.285045713319,address_web
HARVEY WAIRARAPA LIMITED,HARVEY WAIRARAPA LIMITED,HARVEY WAIRARAPA LIMITED,"79 Iorns Street North, Masterton, Masterton, 5810, NEW ZEALAND",5810,address_for_service,-40.959707107842,175.66582423433,address_web
Arna Enterprises Limited,ARNA ENTERPRISES LIMITED,ARNA ENTERPRISES LIMITED,"13 Junction Street, Putaruru, Putaruru, 3411, NEW ZEALAND",3411,address_for_service,-38.04020414969,175.785409768943,address_web
CESAR & OBENITA DAIRIES LIMITED,CESAR & OBENITA DAIRIES LIMITED,CESAR OBENITA DAIRIES LIMITED,"25d Victoria Avenue, Invercargill, Invercargill, 9810, NEW ZEALAND",9810,address_for_service,-46.40580154788,168.344076661553,address_web
Intus Limited,INTUS LIMITED,INTUS LIMITED,"Perriam & Partners Limited, Unit 4, 35 Sir William Pickering Drive, Burnside, Christchurch, 8053, NEW ZEALAND",8053,public_address,-43.497954967198,172.559313640259,address_web
Mettler Toledo Limited,METTLER-TOLEDO LIMITED,METTLER TOLEDO LIMITED,"18a Maui Street, Pukete, Hamilton, 3200, NEW ZEALAND",3200,registered_office,-37.739941160073,175.227734341858,address_web
Magic Engineering Limited,MAGIC ENGINEERING LIMITED,MAGIC ENGINEERING LIMITED,"32a Puriri Road, Manurewa, Auckland, 2102, NEW ZEALAND",2102,address_for_service,-37.032045683373,174.893233289427,address_web
HR Tiling Limited,HR TILING LIMITED,HR TILING LIMITED,"15 Margan Avenue, Papatoetoe, Auckland, 2025, NEW ZEALAND",2025,address_for_service,-36.974559112906,174.855225298021,address_web
Edgewater Resort Hotel Limited,EDGEWATER RESORT HOTEL LIMITED,EDGEWATER RESORT HOTEL LIMITED,"54 Sargood Drive, Wanaka, Wanaka, 9305, NEW ZEALAND",9305,public_address,-44.695752861302,169.111568559479,address_web
Batala transport limited,BATALA TRANSPORT LIMITED,BATALA TRANSPORT LIMITED,"14b Dunton Drive, Welcome Bay, Tauranga, 3112, NEW ZEALAND",3112,address_for_service,-37.726671685337,176.200123623107,address_web
KARISHMA & JAYMIN ENTERPRISES LIMITED,KARISHMA & JAYMIN ENTERPRISES LIMITED,KARISHMA JAYMIN ENTERPRISES LIMITED,"126 Studholm St, Morrinsville, NEW ZEALAND",,address_for_service,-37.652559819469,175.523385273071,original
Cheung Kong Media Nz Limited,CHEUNG KONG MEDIA NZ LIMITED,CHEUNG KONG MEDIA NZ LIMITED,"175 Queen Street,, Auckland Centre, Auckland, 1010, NEW ZEALAND",1010,address_for_service,-36.848090149857,174.765369954875,address_web
STARWOOD FARMS LIMITED,STARWOOD FARMS LIMITED,STARWOOD FARMS LIMITED,"17 Rewi Street, Te Aroha, Te Aroha, 3320, NEW ZEALAND",3320,address_for_service,-37.5282,175.7102,original
Desktop Technology Services Limited,DESKTOP TECHNOLOGY SERVICES LIMITED,DESKTOP TECHNOLOGY SERVICES LIMITED,"Level 1, Ipayroll House, 93 Boulcott Street, Wellington, 6011, NEW ZEALAND",6011,public_address,-41.2862584,174.7741114,address_web
A & A Algie Limited,A & A ALGIE LIMITED,A A ALGIE LIMITED,"491 Mahurangi East Road, Algies Bay, Warkworth, 0920, NEW ZEALAND",0920,address_for_service,-36.430630970947,174.739008031198,address_web
ASRA Communications lIMITED,ASRA COMMUNICATIONS LIMITED,ASRA COMMUNICATIONS LIMITED,"Flat 2, 51 Mulgan Street, New Windsor, Auckland, 0600, NEW ZEALAND",0600,address_for_service,-36.9110871092,174.711421595286,address_web
Thermosash Service & Maintenance Limited,THERMOSASH SERVICE & MAINTENANCE LIMITED,THERMOSASH SERVICE MAINTENANCE LIMITED,"158-164 Central Park Drive, Henderson, Auckland, 0610, NEW ZEALAND",0610,address_for_service,-36.852182572173,174.632772018496,address_web
Zhaoyue (Nz) International Company Limited,ZHAOYUE (NZ) INTERNATIONAL COMPANY LIMITED,ZHAOYUE NZ INTERNATIONAL COMPANY LIMITED,"42 Beaver Road, Rd 2, Pukekohe, 2677, NEW ZEALAND",2677,public_address,-37.214666985541,174.96944398385,address_web
Brotherteam House Maintain Limited,BROTHERTEAM HOUSE MAINTAIN LIMITED,BROTHERTEAM HOUSE MAINTAIN LIMITED,"1 Corfield Way, Burswood, Auckland, 2013, NEW ZEALAND",2013,address_for_service,-36.919658611026,174.897563464426,address_web
Gj Air Tech Limited,GJ AIR TECH LIMITED,GJ AIR TECH LIMITED,"113 Te Wharau Drive, Greenhithe, Auckland, 0632, NEW ZEALAND",0632,address_for_service,-36.767710799709,174.680615586546,address_web
Vincent Lee Panel And Paint Limited,VINCENT LEE PANEL AND PAINT LIMITED,VINCENT LEE PANEL AND PAINT LIMITED,"81 The Esplanade, Petone, Lower Hutt, 5012, NEW ZEALAND",5012,address_for_service,-41.226383632382,174.870495139794,address_web
EDIRISINGHA BROTHERS LIMITED,EDIRISINGHA BROTHERS LIMITED,EDIRISINGHA BROTHERS LIMITED,"17b Bruce Road, Glenfield, Auckland, 0629, NEW ZEALAND",0629,address_for_service,-36.780307878172,174.738343849191,address_web
Kokihi Pastures Limited,KOKIHI PASTURES LIMITED,KOKIHI PASTURES LIMITED,"54 Gill Street, New Plymouth, New Plymouth, 4310, NEW ZEALAND",4310,address_for_service,-39.056137795121,174.076825358941,address_web
Auckland Earthmover Limited,AUCKLAND EARTHMOVER LIMITED,AUCKLAND EARTHMOVER LIMITED,"Unit 4, 419 East Tamaki Road, East Tamaki, Auckland, 2013, NEW ZEALAND",2013,address_for_service,-36.950852450426,174.903078086163,address_web
Union Windows Limited,UNION WINDOWS LIMITED,UNION WINDOWS LIMITED,"4a Grayson Avenue, Papatoetoe, Auckland, 2104, NEW ZEALAND",2104,address_for_service,-36.986838726786,174.864813440882,address_web
J&M RENOVATIONS LIMITED,J&M RENOVATIONS LIMITED,J M RENOVATIONS LIMITED,"21 Shanaway Rise, Hillcrest, Auckland, 0627, NEW ZEALAND",0627,address_for_service,-36.800730846264,174.732636862776,address_web
R & E Sotto Dairies Limited,R & E SOTTO DAIRIES LIMITED,R E SOTTO DAIRIES LIMITED,"25 Victoria Avenue, Avenal, Invercargill, 9810, NEW ZEALAND",9810,address_for_service,-46.40580154788,168.344076661553,address_web
NAN HOT POT LIMITED,NAN HOT POT LIMITED,NAN HOT POT LIMITED,"37 Taroka Close, Pinehill, Auckland, 0632, NEW ZEALAND",0632,address_for_service,-36.727313379164,174.723058862017,address_web
CIN7 LIMITED,CIN7 LIMITED,CIN7 LIMITED,"Level 5, 60 Khyber Pass Road, Grafton, Grafton, Auckland, 1023, NEW ZEALAND",1023,address_for_service,-36.864191660129,174.762533854117,address_web
Adwith Limited,ADWITH LIMITED,ADWITH LIMITED,"15b Marua Rd, Ellerslie, Auckland, 1051, NEW ZEALAND",1051,address_for_service,-36.890311598261,174.815136918246,address_web
VAC GROUP LIMITED,VAC GROUP LIMITED,VAC GROUP LIMITED,"11 Kenley Heights, Flat Bush, Auckland, 2016, NEW ZEALAND",2016,public_address,-36.954380058197,174.929734969013,address_web
Bacchus E.T Limited,BACCHUS E.T LIMITED,BACCHUS E T LIMITED,"198 Church Road, Greenmeadows, Napier, 4112, NEW ZEALAND",4112,public_address,-39.518468361124,176.842448896189,address_web
Han&Lee Homes Limited,HAN&LEE HOMES LIMITED,HAN LEE HOMES LIMITED,"65 Killybegs Drive, Pinehill, Auckland, 0632, NEW ZEALAND",0632,address_for_service,-36.731550515039,174.729981308212,address_web
PS Koopal Farms Limited,PS KOOPAL FARMS LIMITED,PS KOOPAL FARMS LIMITED,"505 Rerewhakaaitu Road, Rd 3, Rotorua, 3073, NEW ZEALAND",3073,address_for_service,-38.318254718705,176.491259306898,address_web
New Zealand Crane Hire Limited,NEW ZEALAND CRANE HIRE LIMITED,NEW ZEALAND CRANE HIRE LIMITED,"122 Captain Springs Road, Onehunga, Auckland, NEW ZEALAND",,address_for_service,-36.924474559223,174.800596746989,original
MNT Enterprise Limited,MNT ENTERPRISE LIMITED,MNT ENTERPRISE LIMITED,"26 Baker Street, Caversham, Dunedin, 9012, NEW ZEALAND",9012,address_for_service,-45.896097722415,170.48832951602,address_web
Himkhand Limited,HIMKHAND LIMITED,HIMKHAND LIMITED,"18 Rossiter Avenue, Redwood, Christchurch, 8051, NEW ZEALAND",8051,address_for_service,-43.474044582562,172.615630138952,address_web
Punjab King Transport Limited,PUNJAB KING TRANSPORT LIMITED,PUNJAB KING TRANSPORT LIMITED,"220 Porchester Road, Takanini, Takanini, 2112, NEW ZEALAND",2112,address_for_service,-37.044953814263,174.933495426054,address_web
UNITY FARM LIMITED,UNITY FARM LIMITED,UNITY FARM LIMITED,"25d Victoria Avenue, Invercargill, 9810, NEW ZEALAND",9810,address_for_service,-46.40580154788,168.344076661553,address_web
Allcover Financial limited,ALLCOVER FINANCIAL LIMITED,ALLCOVER FINANCIAL LIMITED,"1/43 Omega Street, Rosedale, Rosedale, Auckland, 0632, NEW ZEALAND",0632,address_for_service,-36.751313492074,174.709990385319,address_web
Commercial Diesel Limited,COMMERCIAL DIESEL LIMITED,COMMERCIAL DIESEL LIMITED,"11e Neville Street, Warkworth, Warkworth, 0910, NEW ZEALAND",0910,address_for_service,-36.398219995386,174.665661013995,address_web
BuLa Star Limited,BULA STAR LIMITED,BULA STAR LIMITED,"26 Eclipse Rise, Flagstaff, Hamilton, 3210, NEW ZEALAND",3210,address_for_service,-37.734936577145,175.248463207506,address_web
SK Stars Distribution Limited,SK STARS DISTRIBUTION LIMITED,SK STARS DISTRIBUTION LIMITED,"11 Twickenham Place, Nawton, Hamilton, 3200, NEW ZEALAND",3200,address_for_service,-37.778545230524,175.227704334644,address_web
BRIGHT HOME ENGINEERING CONSULTANTS LIMITED,BRIGHT HOME ENGINEERING CONSULTANTS LIMITED,BRIGHT HOME ENGINEERING CONSULTANTS LIMITED,"44 Patiki Road, Avondale, Auckland, 1026, NEW ZEALAND",1026,public_address,-36.870538994157,174.666356169538,address_web
B and M Joinery Limited,B AND M JOINERY LIMITED,B AND M JOINERY LIMITED,"Level 3, Mountain Club, 36 Grant Road, Frankton, 9371, NEW ZEALAND",9371,address_for_service,-45.01350326697,168.743759164933,address_web
BBL Contracting Limited,BBL CONTRACTING LIMITED,BBL CONTRACTING LIMITED,"636 Back Ormond Road, Gisborne, 4071, NEW ZEALAND",4071,address_for_service,-38.624488598958,177.983118713826,address_web
Paintplas Maintaining Limited,PAINTPLAS MAINTAINING LIMITED,PAINTPLAS MAINTAINING LIMITED,"87a Kimtpton Road, Papatoetoe, Auckland, 2025, NEW ZEALAND",2025,address_for_service,-36.971341300277,174.871649804931,address_web
MARCH CONSTRUCTION LIMITED,MARCH CONSTRUCTION LIMITED,MARCH CONSTRUCTION LIMITED,"1220 Main North Rd, Belfast, Christchurch, 8083, NEW ZEALAND",8083,public_address,-43.422882744774,172.65185295262,address_web
Altherm Northland Limited,ALTHERM NORTHLAND LIMITED,ALTHERM NORTHLAND LIMITED,"18 Hewlett Street, Port Whangarei, Whangarei, 0110, NEW ZEALAND",0110,public_address,-35.741904445804,174.344486097966,address_web
G & T AUTO 2015 LIMITED,G & T AUTO 2015 LIMITED,G T AUTO 2015 LIMITED,"5 Malvern Road, Onehunga, Auckland, 1061, NEW ZEALAND",1061,address_for_service,-36.920567796063,174.801625625604,address_web
VRAJ TELECOMMUNICATION LIMITED,VRAJ TELECOMMUNICATION LIMITED,VRAJ TELECOMMUNICATION LIMITED,"Flat 1, 116 Astley Avenue, New Lynn, Auckland, 0600, NEW ZEALAND",0600,address_for_service,-36.92016814692,174.683389912678,address_web
Chuy Farming Limited,CHUY FARMING LIMITED,CHUY FARMING LIMITED,"151 Burnett Street, Ashburton, Ashburton, 7700, NEW ZEALAND",7700,address_for_service,-43.903587867461,171.746932459877,address_web
RDHIMANZ INVESTMENTS LIMITED,RDHIMANZ INVESTMENTS LIMITED,RDHIMANZ INVESTMENTS LIMITED,"8 Sue Place, Mahora, Hastings, 4120, NEW ZEALAND",4120,address_for_service,-39.621437149877,176.850605745265,address_web
RED TREE PROPERTY INVESTMENT LIMITED,RED TREE PROPERTY INVESTMENT LIMITED,RED TREE PROPERTY INVESTMENT LIMITED,"32 Budgen Street, Mount Roskill, Auckland, 1041, NEW ZEALAND",1041,address_for_service,-36.923819681128,174.731708147904,address_web
JS TAX SOLUTIONS LIMITED,JS TAX SOLUTIONS LIMITED,JS TAX SOLUTIONS LIMITED,"349 Dominion Road, Mount Eden, Auckland, 1024, NEW ZEALAND",1024,address_for_service,-36.879553090259,174.749686659663,address_web
QUEENSTOWN REFLEXOLOGY LIMITED,QUEENSTOWN REFLEXOLOGY LIMITED,QUEENSTOWN REFLEXOLOGY LIMITED,"12 Cow Lane, Queenstown, Queenstown, 9300, NEW ZEALAND",9300,public_address,-45.031770158108,168.661097338731,address_web
Brave Milk Limited,BRAVE MILK LIMITED,BRAVE MILK LIMITED,"16 Wear Street, Oamaru, Oamaru, 9400, NEW ZEALAND",9400,address_for_service,-45.098751245578,170.971509269891,address_web
Mh Sidhu Transport Limited,MH SIDHU TRANSPORT LIMITED,MH SIDHU TRANSPORT LIMITED,"8 Stellata Court, Randwick Park, Auckland, 2105, NEW ZEALAND",2105,address_for_service,-37.021811756781,174.919553806502,address_web
Manha Hotels Limited,MANHA HOTELS LIMITED,MANHA HOTELS LIMITED,"97 Great South Road, Epsom, Auckland, 1051, NEW ZEALAND",1051,address_for_service,-36.883496985251,174.785475961298,address_web
Bede Ryan Contracting Limited,BEDE RYAN CONTRACTING LIMITED,BEDE RYAN CONTRACTING LIMITED,"50d Centennial Avenue, Alexandra, 9320, NEW ZEALAND",9320,address_for_service,-45.252598228516,169.38919010078,address_web
Pacific Barbers 2022 Limited,PACIFIC BARBERS (2022) LIMITED,PACIFIC BARBERS 2022 LIMITED,"3 A Robertson Road, Rainui, Auckland, 0612, NEW ZEALAND",0612,address_for_service,-36.866588213885,174.602164493223,address_web
Jimmy Coops Lakehouse Limited,JIMMY COOPS LAKEHOUSE LIMITED,JIMMY COOPS LAKEHOUSE LIMITED,"109 Tuwharetoa Street, Taupo, Taupo, 3330, NEW ZEALAND",3330,address_for_service,-38.690109303542,176.075228152832,address_web
Titanium Property Management Limited,TITANIUM PROPERTY MANAGEMENT LIMITED,TITANIUM PROPERTY MANAGEMENT LIMITED,"7 Divide Loop, Takanini, Takanini, 2112, NEW ZEALAND",2112,address_for_service,-37.036263918055,174.924924091867,address_web
PEC Limited,PEC LIMITED,PEC LIMITED,"2 Station Road, Marton, Marton, 4710, NEW ZEALAND",4710,address_for_service,-40.0692,175.3782,original
BALVIRK CLEANING LIMITED,BALVIRK CLEANING LIMITED,BALVIRK CLEANING LIMITED,"30 Athier Avenue, Chartwell, Hamilton, 3281, NEW ZEALAND",3281,address_for_service,-37.752661662061,175.299019494699,address_web
TIWANA CONSTRUCTIONS LIMITED,TIWANA CONSTRUCTIONS LIMITED,TIWANA CONSTRUCTIONS LIMITED,"14 Listack Drive, Flat Bush, Auckland, 2019, NEW ZEALAND",2019,address_for_service,-36.97361606498,174.919762432072,original
Technicool Refrigeration Limited,TECHNICOOL REFRIGERATION LIMITED,TECHNICOOL REFRIGERATION LIMITED,"4 Graham Street, Auckland Central, Auckland, 1010, NEW ZEALAND",1010,address_for_service,-36.846971249602,174.759015969354,address_web
NZFREIGHTS LIMITED,NZFREIGHTS LIMITED,NZFREIGHTS LIMITED,"39 Black Teal Close, Unsworth Heights, Auckland, 0632, NEW ZEALAND",0632,address_for_service,-36.756520497965,174.709511527191,address_web
Whenuakura Farm Limited,WHENUAKURA FARM LIMITED,WHENUAKURA FARM LIMITED,"26 Wellington Street, Hawera, Taranaki, 4640, NEW ZEALAND",4640,address_for_service,-39.586377912008,174.281811003704,address_web
LIGHTING DIRECT LIMITED,LIGHTING DIRECT LIMITED,LIGHTING DIRECT LIMITED,"470 Parnell Road, Parnell, Auckland, 1052, NEW ZEALAND",1052,address_for_service,-36.861508990108,174.782455793946,address_web
ZY FABRICATION LIMITED,ZY FABRICATION LIMITED,ZY FABRICATION LIMITED,"Unit 8, 38 Andromeda Crescent, East Tamaki, Auckland, 2013, NEW ZEALAND",2013,address_for_service,-36.94825938295,174.884843339624,address_web
METCO ENGINEERING 2002 LIMITED,METCO ENGINEERING 2002 LIMITED,METCO ENGINEERING 2002 LIMITED,"1e Quadrant Drive, Waiwhetu, Lower Hutt, 5010, NEW ZEALAND",5010,address_for_service,-41.232857574352,174.912672180176,address_web
D10 Limited,D10 LIMITED,D10 LIMITED,"16a Sarona Avenue, Glen Eden, Auckland, 0602, NEW ZEALAND",0602,address_for_service,-36.904741086487,174.655962816745,address_web
Keep It Crisp Limited,KEEP IT CRISP LIMITED,KEEP IT CRISP LIMITED,"Shop 2, 433 Stuart Street, Dunedin, 9010, NEW ZEALAND",9010,public_address,-45.866108236772,170.486645926948,address_web
Enriching Pasifika Whanau Limited,ENRICHING PASIFIKA WHANAU LIMITED,ENRICHING PASIFIKA WHANAU LIMITED,"Po Box 22048, Otahuhu, Auckland, 1640, NEW ZEALAND",1640,public_address,-36.9382,174.84019,address_web
Redline Interiors Limited,REDLINE INTERIORS LIMITED,REDLINE INTERIORS LIMITED,"Unit 5, 28 Harrison Road, Mount Wellington, Auckland, 1060, NEW ZEALAND",1060,address_for_service,-36.901507180604,174.823838758666,address_web
ThermaShield Limited,THERMASHIELD LIMITED,THERMASHIELD LIMITED,"Level 1, 8 Raroa Road, Hutt Central, Lower Hutt, 5010, NEW ZEALAND",5010,address_for_service,-41.207313850153,174.908612908287,address_web
GPC Electronics (New Zealand) Limited,GPC ELECTRONICS (NEW ZEALAND) LIMITED,GPC ELECTRONICS NEW ZEALAND LIMITED,"10 Sonter Rd, Christchurch, 8042, NEW ZEALAND",8042,public_address,-43.546432332856,172.570280187098,address_web
D & T Action Limited,D & T ACTION LIMITED,D T ACTION LIMITED,"50 John Fair Drive, Wainui, Wainui, 0932, NEW ZEALAND",0932,address_for_service,-36.617296918583,174.655929540589,address_web
Hassan Enterprises Limited,HASSAN ENTERPRISES LIMITED,HASSAN ENTERPRISES LIMITED,"51 Lockwood Road, Rd 3, Hunua, 2583, NEW ZEALAND",2583,address_for_service,-37.1333,175.1167,original
Rosevale Dairy Farm Limited,ROSEVALE DAIRY FARM LIMITED,ROSEVALE DAIRY FARM LIMITED,"Level 1, 20 Don Street, Invercargill, 9810, NEW ZEALAND",9810,address_for_service,-46.410615903517,168.348571792407,address_web
Nemesys Limited,NEMESYS LIMITED,NEMESYS LIMITED,"Level 4, Building E Union Square, 192 Anglesea Street, Hamilton, 3204, NEW ZEALAND",3204,address_for_service,-37.79071617303,175.283068230042,address_web
Bhangu Communications Limited,BHANGU COMMUNICATIONS LIMITED,BHANGU COMMUNICATIONS LIMITED,"10 Fulton Street, Springlands, Blenheim, 7201, NEW ZEALAND",7201,address_for_service,-41.50255322992,173.943193682443,address_web
SPACE FURNITURE LIMITED,SPACE FURNITURE LIMITED,SPACE FURNITURE LIMITED,"Bishopdale Mall, 11c Bishopdale Court, Bishopdale, Christchurch, 8053, NEW ZEALAND",8053,address_for_service,-43.489781102859,172.586792368715,address_web
Zl Motors Nz Limited,ZL MOTORS NZ LIMITED,ZL MOTORS NZ LIMITED,"34 Potaka Lane, Panmure, Auckland, 1072, NEW ZEALAND",1072,address_for_service,-36.897680171252,174.850241334573,address_web
Whistle & Pop Limited,WHISTLE & POP LIMITED,WHISTLE POP LIMITED,"144 Tancred Street, Ashburton, 7700, NEW ZEALAND",7700,address_for_service,-43.906587163874,171.747991429525,address_web
DIPPY'S GROUP LIMITED,DIPPY'S GROUP LIMITED,DIPPY S GROUP LIMITED,"41 Middlefield Drive, East Tamaki Heights, Auckland, 2016, NEW ZEALAND",2016,address_for_service,-36.946916853519,174.913922424854,address_web
Steelworks New Zealand Limited,STEELWORKS NEW ZEALAND LIMITED,STEELWORKS NEW ZEALAND LIMITED,"34 Whakakake Street, Tauriko, Tauranga, 3110, NEW ZEALAND",3110,public_address,-37.741608194887,176.099264266016,address_web
Aqibhaque Food Limited,AQIBHAQUE FOOD LIMITED,AQIBHAQUE FOOD LIMITED,"127 Tramway Road, Enderley, Hamilton, 3214, NEW ZEALAND",3214,address_for_service,-37.767924688648,175.300123307528,address_web
Greenmeadows Farm 2022 Limited,GREENMEADOWS FARM 2022 LIMITED,GREENMEADOWS FARM 2022 LIMITED,"31 Richardson Street, Whakatane, Whakatane, 3120, NEW ZEALAND",3120,address_for_service,-37.953145428539,176.993426502214,address_web
juneja traders limited,JUNEJA TRADERS LIMITED,JUNEJA TRADERS LIMITED,"24 Blue Jacket Drive, Halswell, Christchurch, 8025, NEW ZEALAND",8025,address_for_service,-43.580401085122,172.554614996796,address_web
M8 Fitout Limited,M8 FITOUT LIMITED,M8 FITOUT LIMITED,"133 Wairau Road,glenfield, Auckland, 0629, NEW ZEALAND",0629,address_for_service,-36.77240613232,174.741964915181,address_web
saily developers limited,SAILY DEVELOPERS LIMITED,SAILY DEVELOPERS LIMITED,"16 Glenorchy Place, Pyes Pa, Tauranga, 3112, NEW ZEALAND",3112,public_address,-37.74873071711,176.126453567355,address_web
Mora Wines & Artisan Kitchen Limited,MORA WINES & ARTISAN KITCHEN LIMITED,MORA WINES ARTISAN KITCHEN LIMITED,"25 Mailer Street, Mornington, Dunedin, 9011, NEW ZEALAND",9011,address_for_service,-45.881182712447,170.481020747908,address_web
GMG HOMES LIMITED,GMG HOMES LIMITED,GMG HOMES LIMITED,"Unit 7, 2 Amera Place, Huntington Park, Auckland, 2013, NEW ZEALAND",2013,address_for_service,-36.929276551553,174.904379125174,address_web
Matamata Commercial Cleaners Limited,MATAMATA COMMERCIAL CLEANERS LIMITED,MATAMATA COMMERCIAL CLEANERS LIMITED,"101 Arawa Street, Matamata, 3400, NEW ZEALAND",3400,address_for_service,-37.807804484762,175.774200063094,address_web
Young Property Development Limited,YOUNG PROPERTY DEVELOPMENT LIMITED,YOUNG PROPERTY DEVELOPMENT LIMITED,"16 Estuary Views, Shelly Park, Auckland, 2014, NEW ZEALAND",2014,address_for_service,-36.912450090476,174.944192410886,address_web
CHAHAL PATRAN LIMITED,CHAHAL PATRAN LIMITED,CHAHAL PATRAN LIMITED,"271 Ohangai Road, Hawera, 4673, NEW ZEALAND",4673,address_for_service,-39.561571082827,174.299937288417,address_web
Fulcrum Decision Limited,FULCRUM DECISION LIMITED,FULCRUM DECISION LIMITED,"72 Dominion Road, Mount Eden, Auckland, 1024, NEW ZEALAND",1024,address_for_service,-36.871120183203,174.752794753179,address_web
Knapdale Farms Limited,KNAPDALE FARMS LIMITED,KNAPDALE FARMS LIMITED,"Level 1, 69 Tarbert Street, Alexandra, 9320, NEW ZEALAND",9320,address_for_service,-45.255178932685,169.393409550839,address_web
COLAS LIMITED,COLAS LIMITED,COLAS LIMITED,"39 Mclaughlins Road, Manukau, Auckland, 2104, NEW ZEALAND",2104,address_for_service,-37.003082519864,174.848487672791,address_web
Nikau Contractors Limited,NIKAU CONTRACTORS LIMITED,NIKAU CONTRACTORS LIMITED,"3a Delta Avenue, New Lynn, Auckland, 0600, NEW ZEALAND",0600,address_for_service,-36.907052941111,174.683074250204,address_web
Green Air Products Limited,GREEN AIR PRODUCTS LIMITED,GREEN AIR PRODUCTS LIMITED,"4/30 O'rorke Road,, Penrose, Auckland, 1061, NEW ZEALAND",1061,address_for_service,-36.915335749708,174.816666177657,address_web
M & K AXTENS LIMITED,M & K AXTENS LIMITED,M K AXTENS LIMITED,"33 Coles Crescent, Papakura, 2110, NEW ZEALAND",2110,address_for_service,-37.060599851916,174.939085736377,address_web
El Machito Limited,EL MACHITO LIMITED,EL MACHITO LIMITED,"337 Morris Road, Rd 10, Waimate, 7980, NEW ZEALAND",7980,address_for_service,-44.841519019027,171.157039008642,address_web
Amrose Investment Limited,AMROSE INVESTMENT LIMITED,AMROSE INVESTMENT LIMITED,"117 Guppy Road, Taradale, Napier, 4112, NEW ZEALAND",4112,address_for_service,-39.533321428827,176.859599862648,address_web
Autumn Leaves (Nz) Limited,AUTUMN LEAVES (NZ) LIMITED,AUTUMN LEAVES NZ LIMITED,"28 Southbrook Road, Rangiora, Rangiora, 7400, NEW ZEALAND",7400,address_for_service,-43.322883831953,172.598376158904,address_web
HUAWEI LIMITED,HUAWEI LIMITED,HUAWEI LIMITED,"83 Gossamer Drive, Pakuranga Heights, Auckland, 2010, NEW ZEALAND",2010,public_address,-36.91412479473,174.88872625627,address_web
Taj Transport Company Limited,TAJ TRANSPORT COMPANY LIMITED,TAJ TRANSPORT COMPANY LIMITED,"46 Holdsworth Avenue, Trentham, Upper Hutt, 5018, NEW ZEALAND",5018,address_for_service,-41.12671325967,175.036079778818,address_web
Rehmat Transport Limited,REHMAT TRANSPORT LIMITED,REHMAT TRANSPORT LIMITED,"46 Percy Kinsman Crescent, Riverstone Terraces, Upper Hutt, 5018, NEW ZEALAND",5018,address_for_service,-41.113053816889,175.041764301733,address_web
Stratex (NZ) Limited,STRATEX (NZ) LIMITED,STRATEX NZ LIMITED,"P O Box 12 163, Penrose, Auckland, 1642, NEW ZEALAND",1642,public_address,-36.908005502498,174.826780303766,address_web
PRODUCE DELIVERED LIMITED,PRODUCE DELIVERED LIMITED,PRODUCE DELIVERED LIMITED,"Suite A2, 27 Gillies Avenue, Newmarket, Auckland, 1023, NEW ZEALAND",1023,address_for_service,-36.871058408577,174.774305482756,address_web
KNIGHT ELECTRICAL LIMITED,KNIGHT ELECTRICAL LIMITED,KNIGHT ELECTRICAL LIMITED,"17 Rashni Road, Flat Bush, Auckland, 2019, NEW ZEALAND",2019,address_for_service,-36.975202968798,174.929282346242,original
Pemberton Civil Hamilton Limited,PEMBERTON CIVIL (HAMILTON) LIMITED,PEMBERTON CIVIL HAMILTON LIMITED,"32 Earthmover Crescent, Burbush, Hamilton, 3200, NEW ZEALAND",3200,address_for_service,-37.738201118884,175.217153865479,address_web
Lisdale Dairies Limited,LISDALE DAIRIES LIMITED,LISDALE DAIRIES LIMITED,"50 Aerodrome Road, Rd6, Invercargill, 9876, NEW ZEALAND",9876,address_for_service,-46.352901093826,168.384114498451,address_web
Uno Loco Limited,UNO LOCO LIMITED,UNO LOCO LIMITED,"99a Victoria Street, Hamilton Central, Hamilton, 3204, NEW ZEALAND",3204,address_for_service,-37.790352985165,175.285638959746,address_web
Dove Medical Press NZ Limited,DOVE MEDICAL PRESS (NZ) LIMITED,DOVE MEDICAL PRESS NZ LIMITED,"1 Ihumata Road, Milford, Auckland, 0620, NEW ZEALAND",0620,address_for_service,-36.770686207698,174.766993110425,address_web
RS SOHAL TRANSPORT LIMITED,RS SOHAL TRANSPORT LIMITED,RS SOHAL TRANSPORT LIMITED,"5c Stamford Park Road, Mount Roskill, Auckland, 1041, NEW ZEALAND",1041,address_for_service,-36.91532030558,174.75110747607,address_web
Willowmere Limited,WILLOWMERE LIMITED,WILLOWMERE LIMITED,"81 Hokonui Drive, Gore, 9710, NEW ZEALAND",9710,address_for_service,-46.091443633703,168.944106767394,address_web
Contract Warehousing Limited,CONTRACT WAREHOUSING LIMITED,CONTRACT WAREHOUSING LIMITED,"17 Allens Road, East Tamaki, Auckland, 2013, NEW ZEALAND",2013,public_address,-36.942705994911,174.890992136156,address_web
Skjp Enterprises Limited,SKJP ENTERPRISES LIMITED,SKJP ENTERPRISES LIMITED,"79 Albert Street, Whitianga, Whitianga, 3510, NEW ZEALAND",3510,public_address,-36.835635857114,175.704080246251,address_web
VIP Coatings Limited,VIP COATINGS LIMITED,VIP COATINGS LIMITED,"Level 2, 83 Victoria Street, Christchurch, 8013, NEW ZEALAND",8013,address_for_service,-43.525184669311,172.631468164097,address_web
NZ Moving Limited,NZ MOVING LIMITED,NZ MOVING LIMITED,"2/69 Maich Road, Manurewa, Auckland, 2102, NEW ZEALAND",2102,address_for_service,-37.016144500587,174.890934552481,address_web
LJ ELECTRICAL LIMITED,LJ ELECTRICAL LIMITED,LJ ELECTRICAL LIMITED,"Unit 33, 74 Westpoint Drive, Hobsonville, Auckland, 0618, NEW ZEALAND",0618,address_for_service,-36.810952325729,174.631147354204,address_web
Kiwi Club Enterprises Limited,KIWI CLUB ENTERPRISES LIMITED,KIWI CLUB ENTERPRISES LIMITED,"10 Rainey Crescent, Papamoa Beach, Papamoa, 3118, NEW ZEALAND",3118,address_for_service,-37.711052302137,176.298503194143,address_web
Subway South Invercargill Limited,SUBWAY SOUTH INVERCARGILL LIMITED,SUBWAY SOUTH INVERCARGILL LIMITED,"173 Spey Street, Invercargill, Invercargill, 9810, NEW ZEALAND",9810,address_for_service,-46.409824107033,168.354193786324,address_web
Rapid Scaffolding Limited,RAPID SCAFFOLDING LIMITED,RAPID SCAFFOLDING LIMITED,"19a Laburnum Road, New Windsor, Auckland, 0600, NEW ZEALAND",0600,public_address,-36.906626679425,174.720182276666,address_web
VS Group NZ Limited,VS GROUP NZ LIMITED,VS GROUP NZ LIMITED,"12 Figaro Crescent, Takanini, Takanini, 2112, NEW ZEALAND",2112,address_for_service,-37.045089349637,174.936653224256,address_web
Deluxe Compliance & Mechanical Services Limited,DELUXE COMPLIANCE & MECHANICAL SERVICES LIMITED,DELUXE COMPLIANCE MECHANICAL SERVICES LIMITED,"37 Peninsula Road, Mangere, NEW ZEALAND",,address_for_service,-36.980358845079,174.800481328182,original
F & J Auckland Limited,F & J AUCKLAND LIMITED,F J AUCKLAND LIMITED,"9 Bunbeg Crescent, Flat Bush, Auckland, 2019, NEW ZEALAND",2019,address_for_service,-36.979742062734,174.913860063494,original
Mitchell Bragg Limited,MITCHELL BRAGG LIMITED,MITCHELL BRAGG LIMITED,"18 Maniapoto Street, Otorohanga, 3900, NEW ZEALAND",3900,address_for_service,-38.185397404332,175.211642596504,address_web
Global Commodities & Shipping Limited,GLOBAL COMMODITIES & SHIPPING LIMITED,GLOBAL COMMODITIES SHIPPING LIMITED,"Level 2, Belly Gully Building,, 40 Lady Elizabeth Lane, Wellington, 6011, NEW ZEALAND",6011,address_for_service,-41.282377481126,174.778967916397,address_web
PRO FLOW SERVICES LIMITED,PRO FLOW SERVICES LIMITED,PRO FLOW SERVICES LIMITED,"106 Coxhead Road, Wattle Downs, Auckland, 2103, NEW ZEALAND",2103,address_for_service,-37.037975209317,174.895754230626,address_web
LOHARA FARM LIMITED,LOHARA FARM LIMITED,LOHARA FARM LIMITED,"24 The Terrace, Timaru, 7910, NEW ZEALAND",7910,registered_office,-44.393536427242,171.251314883703,address_web
Tiling Master Nz Limited,TILING MASTER NZ LIMITED,TILING MASTER NZ LIMITED,"27a Coniston Avenue, Te Atatu South, Auckland, 0610, NEW ZEALAND",0610,address_for_service,-36.872268252481,174.648094472777,address_web
Goundar Couriers Limited,GOUNDAR COURIERS LIMITED,GOUNDAR COURIERS LIMITED,"28 Birdwood Road, Swanson, Auckland, 0612, NEW ZEALAND",0612,address_for_service,-36.861828005343,174.59328110078,address_web
Total Service Solutions Nz Limited,TOTAL SERVICE SOLUTIONS NZ LIMITED,TOTAL SERVICE SOLUTIONS NZ LIMITED,"37 Rosewell Crescent, Flat Bush, Auckland, 2019, NEW ZEALAND",2019,address_for_service,-36.967591949258,174.915533594282,original
Pacific Cartons New Zealand Limited,PACIFIC CARTONS NEW ZEALAND LIMITED,PACIFIC CARTONS NEW ZEALAND LIMITED,"139 Hepburn Road, Glendene, Auckland, 0602, NEW ZEALAND",0602,address_for_service,-36.88864527591,174.658488954724,address_web
TUAKAU PET FOOD PROCESSORS LIMITED,TUAKAU PET FOOD PROCESSORS LIMITED,TUAKAU PET FOOD PROCESSORS LIMITED,"Flat 1, 75h Corinthian Drive, Albany, Auckland, 0632, NEW ZEALAND",0632,address_for_service,-36.729252951559,174.712907539081,address_web
Siddiqa Nz Trading Limited,SIDDIQA NZ TRADING LIMITED,SIDDIQA NZ TRADING LIMITED,"1256 Dominion Road, Mount Roskill, Auckland, 1041, NEW ZEALAND",1041,address_for_service,-36.903695402156,174.742247636776,address_web
UNITED RENTALS NEW ZEALAND,UNITED RENTALS NEW ZEALAND,UNITED RENTALS NEW ZEALAND,"2-8 Jarvis Way, East Tamaki, Auckland, 2016, NEW ZEALAND",2016,address_for_service,-36.964174479695,174.892237184053,address_web
Geneva Distributors Limited,GENEVA DISTRIBUTORS LIMITED,GENEVA DISTRIBUTORS LIMITED,"41 Penney Avenue, Mount Roskill, Auckland, 1041, NEW ZEALAND",1041,address_for_service,-36.918864635247,174.726772883314,address_web
Space Group Limited,SPACE GROUP LIMITED,SPACE GROUP LIMITED,"65 Glamorgan Drive, Torbay, Auckland, 0630, NEW ZEALAND",0630,address_for_service,-36.700637427485,174.743106446575,address_web
Ishant Enterprises Limited,ISHANT ENTERPRISES LIMITED,ISHANT ENTERPRISES LIMITED,"7b The Green, Mount Maunganui, Mount Maunganui, 3116, NEW ZEALAND",3116,address_for_service,-37.679147886894,176.217675579813,address_web
Elite Horticulture Limited,ELITE HORTICULTURE LIMITED,ELITE HORTICULTURE LIMITED,"6 Vos Close, Papamoa Beach, Papamoa, 3118, NEW ZEALAND",3118,address_for_service,-37.714010359586,176.29916662178,address_web
CARDRONA ALPINE RESORT LIMITED,CARDRONA ALPINE RESORT LIMITED,CARDRONA ALPINE RESORT LIMITED,"14 Captain Roberts Road, Te Anau, Te Anau, 9600, NEW ZEALAND",9600,address_for_service,-45.411553897621,167.733792051549,address_web
AGI Education Limited,AGI EDUCATION LIMITED,AGI EDUCATION LIMITED,"Level 6, 3 City Road, Grafton, Auckland, 1010, NEW ZEALAND",1010,public_address,-36.856983265307,174.764396648279,address_web
RAILSIDE AUTOMOTIVE LIMITED,RAILSIDE AUTOMOTIVE LIMITED,RAILSIDE AUTOMOTIVE LIMITED,"102 Railside Avenue, Henderson, Auckland, 0612, NEW ZEALAND",0612,address_for_service,-36.886642294417,174.631714641411,address_web
TOBEN DECORATING LIMITED,TOBEN DECORATING LIMITED,TOBEN DECORATING LIMITED,"16 C Link Drive, Glenfield, North Shore City, 0627, NEW ZEALAND",0627,address_for_service,-36.765602457694,174.737951492303,address_web
S&P Transport Limited,S&P TRANSPORT LIMITED,S P TRANSPORT LIMITED,"200a Whitney Street, Blockhouse Bay, Auckland, 0600, NEW ZEALAND",0600,address_for_service,-36.915637644434,174.709360820572,address_web
Prestige Euro Works Limited,PRESTIGE EURO WORKS LIMITED,PRESTIGE EURO WORKS LIMITED,"12f Gladstone Road, Richmond, Richmond, 7020, NEW ZEALAND",7020,address_for_service,-41.337299231131,173.179588221563,address_web
MILLO CONSTRUCTION LIMITED,MILLO CONSTRUCTION LIMITED,MILLO CONSTRUCTION LIMITED,"93b Hutchinsons Road, Highland Park, Auckland, 2014, NEW ZEALAND",2014,address_for_service,-36.892933164208,174.914949124174,address_web
Camden Dairy Farms Limited,CAMDEN DAIRY FARMS LIMITED,CAMDEN DAIRY FARMS LIMITED,"504 Wairakei Road, Burnside, Christchurch, 8053, NEW ZEALAND",8053,address_for_service,-43.489776199446,172.569406960425,address_web
Kaipara Farm Vets Limited,KAIPARA FARM VETS LIMITED,KAIPARA FARM VETS LIMITED,"135 Awakino Road, Dargaville, Dargaville, 0310, NEW ZEALAND",0310,address_for_service,-35.925501024316,173.869418349988,address_web
Q K Renovation Limited,Q K RENOVATION LIMITED,Q K RENOVATION LIMITED,"16 Jan Higgins Place, Golflands, Auckland, 2013, NEW ZEALAND",2013,address_for_service,-36.922059900557,174.905036936936,address_web
Patrick's Pie Group Limited,PATRICK'S PIE GROUP LIMITED,PATRICK S PIE GROUP LIMITED,"18 Balmedie Ridge, Bethlehem, Tauranga, 3110, NEW ZEALAND",3110,address_for_service,-37.685881027806,176.116599466706,address_web
Super Auto Electrical Limited,SUPER AUTO ELECTRICAL LIMITED,SUPER AUTO ELECTRICAL LIMITED,"40 Mcalister Street, Whakatane, Whakatane, 3120, NEW ZEALAND",3120,public_address,-37.952798501566,176.990752507463,address_web
Ladycare Services Limited,LADYCARE SERVICES LIMITED,LADYCARE SERVICES LIMITED,"386 Neilson Street, Penrose, Auckland, 1061, NEW ZEALAND",1061,address_for_service,-36.921476729643,174.812278270168,address_web
KIWI FRUIT CONTRACTING LIMITED,KIWI FRUIT CONTRACTING LIMITED,KIWI FRUIT CONTRACTING LIMITED,"25 Pohutu Street, Whakatane, Whakatane, 3120, NEW ZEALAND",3120,address_for_service,-37.952708270379,176.988430468826,address_web
JSL Farms Limited,JSL FARMS LIMITED,JSL FARMS LIMITED,"1 Princes Street, Paeroa, 3600, NEW ZEALAND",3600,address_for_service,-37.380645096945,175.670299416254,address_web
Machineryhouse (Nz) Pty Limited,MACHINERYHOUSE (NZ) PTY LIMITED,MACHINERYHOUSE NZ PTY LIMITED,"Unit 1/2 Windsor Road, Northmead, New South Wales, 2152, AUSTRALIA",2152,public_address,-33.793042681084,150.998323322739,original
RP's Services Limited,RP'S SERVICES LIMITED,RP S SERVICES LIMITED,"62 Buckland Road, Mangere East, Auckland, 2024, NEW ZEALAND",2024,address_for_service,-36.972138000174,174.831621691041,address_web
Shree Harikrupa LImited,SHREE HARIKRUPA LIMITED,SHREE HARIKRUPA LIMITED,"7 Craigbank Avenue, New Lynn, Auckland, 0600, NEW ZEALAND",0600,address_for_service,-36.916944131682,174.680934015047,address_web
Mad Work Limited,MAD WORK LIMITED,MAD WORK LIMITED,"29c Weymouth Road, Manurewa, Auckland, 2102, NEW ZEALAND",2102,public_address,-37.025029108406,174.89399654553,address_web
Finely Painting Limited,FINELY PAINTING LIMITED,FINELY PAINTING LIMITED,"110 Grande Vue Road, Hillpark, Auckland, 2102, NEW ZEALAND",2102,address_for_service,-37.014716224286,174.905058981341,address_web
Pacific Interior Limited,PACIFIC INTERIOR LIMITED,PACIFIC INTERIOR LIMITED,"17 Okareka Place, Pakuranga Heights, Auckland, 2010, NEW ZEALAND",2010,address_for_service,-36.920480037537,174.88374254428,address_web
angus robertson mechanical limited,ANGUS ROBERTSON MECHANICAL LIMITED,ANGUS ROBERTSON MECHANICAL LIMITED,"Level 1, 136 Ilam Road, Ilam, Christchurch, 8041, NEW ZEALAND",8041,address_for_service,-43.5191535547,172.579364242302,address_web
Real Steel Limited,REAL STEEL LIMITED,REAL STEEL LIMITED,"Level 6, 44 Bowen St, Wellington, 6012, NEW ZEALAND",6012,address_for_service,-41.277641580104,174.77394154052,address_web
Campo Kiwi Limited,CAMPO KIWI LIMITED,CAMPO KIWI LIMITED,"515 Kakanui Valley Road, Rd 11d, Oamaru, 9492, NEW ZEALAND",9492,address_for_service,-45.123592314834,170.812976132526,address_web
Lang Automotive Limited,LANG AUTOMOTIVE LIMITED,LANG AUTOMOTIVE LIMITED,"161 Glenda Drive, Frankton, Queenstown, 9300, NEW ZEALAND",9300,address_for_service,-45.011577398987,168.755402047539,address_web
KIWI TELECOMMUNICATIONS LIMITED,KIWI TELECOMMUNICATIONS LIMITED,KIWI TELECOMMUNICATIONS LIMITED,"74a Astley Avenue, New Lynn, Auckland, 0600, NEW ZEALAND",0600,address_for_service,-36.917094712573,174.684947270288,address_web
Treadwell Tyre Services Limited,TREADWELL TYRE SERVICES LIMITED,TREADWELL TYRE SERVICES LIMITED,"102 Thames Street, Oamaru, 9400, NEW ZEALAND",9400,public_address,-45.098130523739,170.97040998329,address_web
Reliance Biz Services Limited,RELIANCE BIZ SERVICES LIMITED,RELIANCE BIZ SERVICES LIMITED,"Flat 2, 39 Shackleton Road, Mount Eden, Auckland, 1024, NEW ZEALAND",1024,address_for_service,-36.895750447594,174.753305881635,address_web
Extreme Trade Services NZ Limited,EXTREME TRADE SERVICES NZ LIMITED,EXTREME TRADE SERVICES NZ LIMITED,"42 Edgeworth Road, Glenfield, Auckland, 0629, NEW ZEALAND",0629,address_for_service,-36.781795246891,174.733309678143,address_web
Express Tiling Limited,EXPRESS TILING LIMITED,EXPRESS TILING LIMITED,"15 Flannery Road, Pokeno, Pokeno, 2402, NEW ZEALAND",2402,address_for_service,-37.250259060995,175.013670257765,original
PUNJABI DRIVERS LIMITED,PUNJABI DRIVERS LIMITED,PUNJABI DRIVERS LIMITED,"38 Brackenburn Drive, Ohauiti, Tauranga, 3112, NEW ZEALAND",3112,address_for_service,-37.742169111847,176.151981659304,address_web
Bob Owens Retirement Village Limited,BOB OWENS RETIREMENT VILLAGE LIMITED,BOB OWENS RETIREMENT VILLAGE LIMITED,"92d Russley Road, Russley, Christchurch, 8042, NEW ZEALAND",8042,address_for_service,-43.514136524645,172.537927046669,address_web
Next Drinks Limited,NEXT DRINKS LIMITED,NEXT DRINKS LIMITED,"34 Shortland Street, Auckland Central, Auckland, 1010, NEW ZEALAND",1010,registered_office,-36.846656970143,174.767728957705,address_web
Gurnav Enterprise Limited,GURNAV ENTERPRISE LIMITED,GURNAV ENTERPRISE LIMITED,"18 Lilburn Crescent, Massey, Auckland, 0614, NEW ZEALAND",0614,address_for_service,-36.844653569555,174.618089438704,address_web
Swasnal Distributors Limited,SWASNAL DISTRIBUTORS LIMITED,SWASNAL DISTRIBUTORS LIMITED,"11a Jellicoe Road, Manurewa, Auckland, 2102, NEW ZEALAND",2102,address_for_service,-37.018628687141,174.889399909829,address_web
Spectrum Aluminium (2011) Limited,SPECTRUM ALUMINIUM (2011) LIMITED,SPECTRUM ALUMINIUM 2011 LIMITED,"15 Maxwell Place, Te Rapa, Hamilton, 3200, NEW ZEALAND",3200,public_address,-37.752506429214,175.242621188631,address_web
WAHEGURU AUTO CARE LIMITED,WAHEGURU AUTO CARE LIMITED,WAHEGURU AUTO CARE LIMITED,"4 Broderick Crescent, Johnsonville, Wellington, 6037, NEW ZEALAND",6037,address_for_service,-41.223273999627,174.79574018847,address_web
Santo Industries Limited,SANTO INDUSTRIES LIMITED,SANTO INDUSTRIES LIMITED,"P O Box 53000, Auckland Airport, Auckland, 2022, NEW ZEALAND",2022,public_address,-37.0050028,174.7832203,address_web
Gadsby Night Market Limited,GADSBY NIGHT MARKET LIMITED,GADSBY NIGHT MARKET LIMITED,"18 Treagon Place, Papatoetoe, Auckland, 2025, NEW ZEALAND",2025,address_for_service,-36.978117314623,174.835137480327,address_web
Umiya Carriers Limited,UMIYA CARRIERS LIMITED,UMIYA CARRIERS LIMITED,"61a Marendellas Drive, Bucklands Beach, Auckland, 2014, NEW ZEALAND",2014,address_for_service,-36.892976079552,174.91250303337,address_web
Yusaha Dairies Limited,YUSAHA DAIRIES LIMITED,YUSAHA DAIRIES LIMITED,"25 Victoria Avenue, Avenal, Invercargill, 9810, NEW ZEALAND",9810,address_for_service,-46.40580154788,168.344076661553,address_web
Universal Brands Limited,UNIVERSAL BRANDS LIMITED,UNIVERSAL BRANDS LIMITED,"85 Alexandra Street, Hamilton Central, Hamilton, 3204, NEW ZEALAND",3204,registered_office,-37.789487511753,175.282958343291,address_web
ANDO INSURANCE GROUP LIMITED,ANDO INSURANCE GROUP LIMITED,ANDO INSURANCE GROUP LIMITED,"Shed 20 Princes Wharf, Auckland, 1143, NEW ZEALAND",1143,public_address,-36.84237954017,174.76420320865,address_web
Vit Management Limited,VIT MANAGEMENT LIMITED,VIT MANAGEMENT LIMITED,"2a Alfred Street, Mayfield, Blenheim, 7201, NEW ZEALAND",7201,address_for_service,-41.510677263844,173.959134888816,address_web
Jj&Co Limited,JJ&CO LIMITED,JJ CO LIMITED,"P1 33-45 Hurstmere Road, Takapuna, Auckland, 0622, NEW ZEALAND",0622,registered_office,-36.788030209387,174.772747873688,address_web
Hughes Contracting 2002 Limited,HUGHES CONTRACTING (2002) LIMITED,HUGHES CONTRACTING 2002 LIMITED,"160 Spey Street, Invercargill, Invercargill, 9810, NEW ZEALAND",9810,address_for_service,-46.409621643829,168.352822244682,address_web
Teknicraft Design Limited,TEKNICRAFT DESIGN LIMITED,TEKNICRAFT DESIGN LIMITED,"Lvl 12, 17 Albert Street, Auckland, 1010, NEW ZEALAND",1010,address_for_service,-36.845281164555,174.764682303539,address_web
Green By Nature Limited,GREEN BY NATURE LIMITED,GREEN BY NATURE LIMITED,"10 Maheke Street, St Heliers, Auckland, 1071, NEW ZEALAND",1071,address_for_service,-36.851088482352,174.856962698911,address_web
HOPE CONSTRUCTION 2011 LIMITED,HOPE CONSTRUCTION 2011 LIMITED,HOPE CONSTRUCTION 2011 LIMITED,"2/103 Lansford Cres, Avondale, Auckland, 0610, NEW ZEALAND",0610,address_for_service,-36.905744400297,174.699095252296,address_web
Suregrow Limited,SUREGROW LIMITED,SUREGROW LIMITED,"Suite 1, 525 Cameron Road, Tauranga, Tauranga, 3110, NEW ZEALAND",3110,address_for_service,-37.697447802731,176.15925983347,address_web
ETJ Limited,ETJ LIMITED,ETJ LIMITED,"78 Lake Panorama Drive, Henderson Valley, Auckland, 0612, NEW ZEALAND",0612,address_for_service,-36.88141160965,174.60198729979,address_web
BDO Gisborne Limited,BDO GISBORNE LIMITED,BDO GISBORNE LIMITED,"1 Peel Street, Gisborne, NEW ZEALAND",,address_for_service,-38.66535800447,178.026869063278,original
Kewene Contracts Limited,KEWENE CONTRACTS LIMITED,KEWENE CONTRACTS LIMITED,"52 Waitaua Road, Rd 1, Kamo, 0185, NEW ZEALAND",0185,address_for_service,-35.665486969829,174.313646896888,address_web
Accurate Line construction Limited,ACCURATE LINE CONSTRUCTION LIMITED,ACCURATE LINE CONSTRUCTION LIMITED,"3a Ruahine Street, Avondale, Auckland, 0600, NEW ZEALAND",0600,address_for_service,-36.909071638672,174.698124124994,address_web
Super Outlets Limited,SUPER OUTLETS LIMITED,SUPER OUTLETS LIMITED,"161 Central Park Drive. Henderson, Henderson, Auckland, 0610, NEW ZEALAND",0610,address_for_service,-36.85215424134,174.634387797971,address_web
Manraj Transport Limited,MANRAJ TRANSPORT LIMITED,MANRAJ TRANSPORT LIMITED,"24 Baverstock Road, Flat Bush, Auckland, 2016, NEW ZEALAND",2016,address_for_service,-36.955511279849,174.914343950764,address_web
Boatswain Queenstown Cleaning Services Limited,BOATSWAIN QUEENSTOWN CLEANING SERVICES LIMITED,BOATSWAIN QUEENSTOWN CLEANING SERVICES LIMITED,"97 Thompson Street, Queenstown, Queenstown, 9300, NEW ZEALAND",9300,address_for_service,-45.035343447251,168.645506831187,address_web
D&A PASTURES LIMITED,D & A PASTURES LIMITED,D A PASTURES LIMITED,"1a Douglas Street, Kensington, Whangarei, 0112, NEW ZEALAND",0112,address_for_service,-35.706597899881,174.311024953756,address_web
Mergodon Limited,MERGODON LIMITED,MERGODON LIMITED,"4 Williamson Avenue, Ponsonby, Auckland, 1021, NEW ZEALAND",1021,address_for_service,-36.858597116945,174.748981573968,address_web
SSA SERVICES LIMITED,SSA SERVICES LIMITED,SSA SERVICES LIMITED,"9 Shirley Road, Mairehau, Christchurch, 8013, NEW ZEALAND",8013,address_for_service,-43.507959690647,172.652834305844,address_web
Zespri International Limited,ZESPRI INTERNATIONAL LIMITED,ZESPRI INTERNATIONAL LIMITED,"400 Maunganui Road, Mount Maunganui, 3116, NEW ZEALAND",3116,public_address,-37.646111621357,176.190098531633,address_web
Jordans Elevator (Nz) Limited,JORDANS ELEVATOR (NZ) LIMITED,JORDANS ELEVATOR NZ LIMITED,"44 - 46 Constellation Drive, Rosedale, Auckland, 0632, NEW ZEALAND",0632,address_for_service,-36.749400406494,174.729607642968,address_web
B2 Construction Limited,B2 CONSTRUCTION LIMITED,B2 CONSTRUCTION LIMITED,"187 Archers Road, Hillcrest, Auckland, 0629, NEW ZEALAND",0629,address_for_service,-36.78218311946,174.737787039363,address_web
Nimarsh Engineering Limited,NIMARSH ENGINEERING LIMITED,NIMARSH ENGINEERING LIMITED,"56 Budgen Street, Mt. Roskill, Mt. Roskill, Auckland, 1041, NEW ZEALAND",1041,public_address,-36.924514373264,174.730527892118,address_web
WINE SEARCHER LIMITED,WINE-SEARCHER LIMITED,WINE SEARCHER LIMITED,"1st Floor, 3 Totara Avenue, New Lynn, Waitakere City, 0600, NEW ZEALAND",0600,address_for_service,-36.909422714687,174.680890345332,address_web
Acumino NZ Limited,ACUMINO NZ LIMITED,ACUMINO NZ LIMITED,"Level 5, 79 Queen Street, Auckland, 1010, NEW ZEALAND",1010,address_for_service,-36.845527927785,174.766141089968,address_web
Old Town Malaysian Cafe Limited,OLD TOWN MALAYSIAN CAFE LIMITED,OLD TOWN MALAYSIAN CAFE LIMITED,"3110 Great North Road, New Lynn, Auckland, 0600, NEW ZEALAND",0600,address_for_service,-36.90927439691,174.679068790134,address_web
HE'S RENOVATION LIMITED,HE'S RENOVATION LIMITED,HE S RENOVATION LIMITED,"32 Westerham Drive, Dannemora, Auckland, 2016, NEW ZEALAND",2016,address_for_service,-36.928724561319,174.925885412342,address_web
MOVEME HEALTH LIMITED,MOVEME HEALTH LIMITED,MOVEME HEALTH LIMITED,"Unit 3, 99 Carbine Rd, Mt Wellington, Auckland, 1060, NEW ZEALAND",1060,public_address,-36.920294839386,174.848341827676,address_web
MJ & SP DAIRIES LIMITED,MJ & SP DAIRIES LIMITED,MJ SP DAIRIES LIMITED,"25d Victoria Avenue, Invercargill, 9810, NEW ZEALAND",9810,address_for_service,-46.40580154788,168.344076661553,address_web
Kiwi Essence Limited,KIWI ESSENCE LIMITED,KIWI ESSENCE LIMITED,"Unit 4, 188 Mcleod Road, Te Atatu South, Auckland, 0610, NEW ZEALAND",0610,registered_office,-36.87581673119,174.654832600921,address_web
Westcourt Contractors Limited,WESTCOURT CONTRACTORS LIMITED,WESTCOURT CONTRACTORS LIMITED,"4 Albert Street, Otahuhu, Auckland, 1062, NEW ZEALAND",1062,address_for_service,-36.936791430664,174.850814321475,address_web
HOME PHILOSOPHY LIMITED,HOME PHILOSOPHY LIMITED,HOME PHILOSOPHY LIMITED,"1 Ihumata Road, Milford, Auckland, 0620, NEW ZEALAND",0620,public_address,-36.770686207698,174.766993110425,address_web
Trust Scaffolding Limited,TRUST SCAFFOLDING LIMITED,TRUST SCAFFOLDING LIMITED,"6 Culperry Road, Glendene, Auckland, 0602, NEW ZEALAND",0602,address_for_service,-36.889573613596,174.658727503688,address_web
JSL TRANSPORT LIMITED,JSL TRANSPORT LIMITED,JSL TRANSPORT LIMITED,"10 Chambers Avenue, Woodend, Woodend, 7610, NEW ZEALAND",7610,address_for_service,-43.308536025374,172.662077114294,address_web
Tapawera Farm Limited,TAPAWERA FARM LIMITED,TAPAWERA FARM LIMITED,"2a Alfred Street, Mayfield, Blenheim, 7201, NEW ZEALAND",7201,address_for_service,-41.510677263844,173.959134888816,address_web
Fraser Thomas Limited,FRASER THOMAS LIMITED,FRASER THOMAS LIMITED,"Level 1 21 El Kobar Drive, Highbrook, Auckland, 2161, NEW ZEALAND",2161,public_address,-36.941466688617,174.872305856493,original
lifford snow limited,LIFFORD SNOW LIMITED,LIFFORD SNOW LIMITED,"4 Orcades Place, Lynfield, Auckland, 1042, NEW ZEALAND",1042,address_for_service,-36.923440441919,174.720146653578,address_web
Ninja Kiwi Limited,NINJA KIWI LIMITED,NINJA KIWI LIMITED,"17 Shamrock Drive, Kumeu, Kumeu, 0810, NEW ZEALAND",0810,public_address,-36.775853106182,174.553681721237,address_web
CRV Equipment Limited,CRV EQUIPMENT LIMITED,CRV EQUIPMENT LIMITED,"5 Pacific Place, Wanganui, 4500, NEW ZEALAND",4500,public_address,-39.940777854035,175.048060535941,address_web
Corbin Farms Limited,CORBIN FARMS LIMITED,CORBIN FARMS LIMITED,"18 Maniapoto Street, Otorohanga, Otorohanga, 3900, NEW ZEALAND",3900,address_for_service,-38.185397404332,175.211642596504,address_web
OCTOPUS MOTORS LIMITED,OCTOPUS MOTORS LIMITED,OCTOPUS MOTORS LIMITED,"100 Sunnybrae Road, Hillcrest, Auckland, 0627, NEW ZEALAND",0627,address_for_service,-36.784697355137,174.739165778616,address_web
Pawan Express Limited,PAWAN EXPRESS LIMITED,PAWAN EXPRESS LIMITED,"110 Otahu Road, Whangamata, Whangamata, 3620, NEW ZEALAND",3620,address_for_service,-37.217729774871,175.86875078076,address_web
MK Global Limited,MK GLOBAL LIMITED,MK GLOBAL LIMITED,"103a Peverel Street, Riccarton, Christchurch, 8041, NEW ZEALAND",8041,address_for_service,-43.533744813657,172.592682583534,address_web
WJ Food Limited,WJ FOOD LIMITED,WJ FOOD LIMITED,"26 Eric Paton Way, Saint Johns, Auckland, 1072, NEW ZEALAND",1072,address_for_service,-36.884424736204,174.848232946754,address_web
L A Fire Systems Limited,L A FIRE SYSTEMS LIMITED,L A FIRE SYSTEMS LIMITED,"Floor 2, 111 Customhouse Quay, Wellington Central, Wellington, 6011, NEW ZEALAND",6011,address_for_service,-41.286236718896,174.776533560258,address_web
MITEK NEW ZEALAND LIMITED,MITEK NEW ZEALAND LIMITED,MITEK NEW ZEALAND LIMITED,"40 Neales Road, East Tamaki, Auckland, 2013, NEW ZEALAND",2013,public_address,-36.935035966772,174.888505812217,address_web
Workforce Centre Limited,WORKFORCE CENTRE LIMITED,WORKFORCE CENTRE LIMITED,"27 Annandale Drive, Pyes Pa, Tauranga, 3112, NEW ZEALAND",3112,address_for_service,-37.73671416926,176.127106266155,address_web
K&Y CONSTRUCTION LIMITED,K&Y CONSTRUCTION LIMITED,K Y CONSTRUCTION LIMITED,"Unit19, 33 Apollo Drive,, Rosedale, Auckland, 0632, NEW ZEALAND",0632,address_for_service,-36.74444733036,174.732340311041,address_web
GJO Decorating Limited,GJO DECORATING LIMITED,GJO DECORATING LIMITED,"14 Anglers Way, Wattle Downs, Auckland, 2102, NEW ZEALAND",2102,address_for_service,-37.038457084931,174.88228216529,address_web
Panjeta Trading Limited,PANJETA TRADING LIMITED,PANJETA TRADING LIMITED,"10 Tipa Lane, Papamoa Beach, Papamoa, 3118, NEW ZEALAND",3118,address_for_service,-37.718938625287,176.322613906266,address_web
Jk Carpets Limited,JK CARPETS LIMITED,JK CARPETS LIMITED,"5 Melleray Place, Randwick Park, Auckland, 2105, NEW ZEALAND",2105,address_for_service,-37.025760178001,174.912182677031,address_web
ETC CLEANING COMPANY LIMITED,ETC CLEANING COMPANY LIMITED,ETC CLEANING COMPANY LIMITED,"50 Landing Drive, Pyes Pa, Tauranga, 3112, NEW ZEALAND",3112,address_for_service,-37.743905842185,176.105969620918,address_web
Waiparu Farm Limited,WAIPARU FARM LIMITED,WAIPARU FARM LIMITED,"69 Newcastle Street, Riversdale, 9776, NEW ZEALAND",9776,address_for_service,-45.901645243122,168.742261654112,address_web
SATNAM LOGISTIC LIMITED,SATNAM LOGISTIC LIMITED,SATNAM LOGISTIC LIMITED,"122 Kahui Parade, Karaka, Papakura, 2113, NEW ZEALAND",2113,address_for_service,-37.099353874614,174.934568477298,address_web
Damn Good Tiling Limited,DAMN GOOD TILING LIMITED,DAMN GOOD TILING LIMITED,"136c Newton Road, Eden Terrace, Auckland, 1010, NEW ZEALAND",1010,address_for_service,-36.863365246385,174.760146436635,address_web
MDG BUILDERS CONSTRUCTION 2023 LIMITED,MDG BUILDERS CONSTRUCTION 2023 LIMITED,MDG BUILDERS CONSTRUCTION 2023 LIMITED,"161 Cashel Street, Christchurch Central, Christchurch 8011, NEW ZEALAND",,address_for_service,-43.532858553125,172.638693113177,original
South Westland Salmon Limited,SOUTH WESTLAND SALMON LIMITED,SOUTH WESTLAND SALMON LIMITED,"6463 Haast Highway, Paringa, Haast, 7886, NEW ZEALAND",7886,address_for_service,-42.9033,170.8867,original
Glory Plumbing Limited,GLORY PLUMBING LIMITED,GLORY PLUMBING LIMITED,"99 Laurel Oak Drive, Schnapper Rock, Auckland, 0632, NEW ZEALAND",0632,address_for_service,-36.751228751033,174.686368338152,address_web
Forest Operations Limited,FOREST OPERATIONS LIMITED,FOREST OPERATIONS LIMITED,"304a Windsor Avenue, Parkvale, Hastings, 4122, NEW ZEALAND",4122,address_for_service,-39.651072164835,176.857236082133,address_web
McConnell Dairies Limited,MCCONNELL DAIRIES LIMITED,MCCONNELL DAIRIES LIMITED,"45-49 Tirau Street, Putaruru, Putaruru, 3411, NEW ZEALAND",3411,address_for_service,-38.048933315114,175.78069645715,address_web
C & R Management Limited,C & R MANAGEMENT LIMITED,C R MANAGEMENT LIMITED,"366 Mauta Rd, Kumeu, Auckland, 0891, NEW ZEALAND",0891,address_for_service,-36.759992994722,174.513833985903,address_web
Dynex Extrusions Limited,DYNEX EXTRUSIONS LIMITED,DYNEX EXTRUSIONS LIMITED,"Private Bag 802, Manurewa, Auckland, 2243, NEW ZEALAND",2243,public_address,-37.0182,174.88019,address_web
MTH Builders Limited,MTH BUILDERS LIMITED,MTH BUILDERS LIMITED,"569 Ferry Road, Woolston, Christchurch, 8023, NEW ZEALAND",8023,address_for_service,-43.546227311504,172.676482001635,address_web
Alpha Laboratories NZ Limited,ALPHA LABORATORIES (NZ) LIMITED,ALPHA LABORATORIES NZ LIMITED,"48 Crooks Road,, East Tamaki, Auckland, 2013, NEW ZEALAND",2013,address_for_service,-36.939462198382,174.893309983841,address_web
Smart Glazier Software NZ Limited,SMART GLAZIER SOFTWARE NZ LIMITED,SMART GLAZIER SOFTWARE NZ LIMITED,"Level 1, 104 Rosedale Road, Albany, Auckland, 0632, NEW ZEALAND",0632,address_for_service,-36.737702999608,174.723201019095,address_web
Transfleet Equipment Limited,TRANSFLEET EQUIPMENT LIMITED,TRANSFLEET EQUIPMENT LIMITED,"9 Hamilton Road, Herne Bay, Auckland, 1011, NEW ZEALAND",1011,address_for_service,-36.844177435545,174.73891960212,address_web
R R ELECTRICAL LIMITED,R R ELECTRICAL LIMITED,R R ELECTRICAL LIMITED,"19 The Companionway, Whitby, Porirua, 5024, NEW ZEALAND",5024,address_for_service,-41.112550902698,174.89134065569,address_web
VHANJAM HOME AND RENOVATION LIMITED,VHANJAM HOME AND RENOVATION LIMITED,VHANJAM HOME AND RENOVATION LIMITED,"11a Mccombs Street, Somerfield, Christchurch, 8024, NEW ZEALAND",8024,address_for_service,-43.556591115685,172.626614455425,address_web
Oracle Autos Limited,ORACLE AUTOS LIMITED,ORACLE AUTOS LIMITED,"721 Great South Road, Penrose, Auckland, 1061, NEW ZEALAND",1061,address_for_service,-36.921286208984,174.827550097754,address_web
Chahal Enterprises Nz Limited,CHAHAL ENTERPRISES NZ LIMITED,CHAHAL ENTERPRISES NZ LIMITED,"105b Glenmore Road, Sunnyhills, Auckland, 2010, NEW ZEALAND",2010,address_for_service,-36.8993416321,174.887525381002,address_web
BM Workshop Botany Limited,BM WORKSHOP BOTANY LIMITED,BM WORKSHOP BOTANY LIMITED,"166d Harris Road, East Tamaki, Auckland, 2013, NEW ZEALAND",2013,public_address,-36.927783818416,174.897133472793,address_web
Jakir And Sajita Investments Limited,JAKIR AND SAJITA INVESTMENTS LIMITED,JAKIR AND SAJITA INVESTMENTS LIMITED,"21 Barwick Place, Huntington, Hamilton, 3210, NEW ZEALAND",3210,public_address,-37.724806208967,175.284030891622,address_web
Naree Thai Massage Limited,NAREE THAI MASSAGE LIMITED,NAREE THAI MASSAGE LIMITED,"Flat 2e, 151 Mount Eden Road, Mount Eden, Auckland, 1024, NEW ZEALAND",1024,public_address,-36.871055852096,174.761036091838,address_web
AMPERE PLUS ELECTRICAL AND CABLE JOINTING SOLUTIONS LIMITED,AMPERE PLUS ELECTRICAL AND CABLE JOINTING SOLUTIONS LIMITED,AMPERE PLUS ELECTRICAL AND CABLE JOINTING SOLUTIONS LIMITED,"37d Berwyn Avenue, Takanini, Takanini, 2112, NEW ZEALAND",2112,address_for_service,-37.03527665559,174.933828606705,address_web
Prolift Crane Hire Limited,PROLIFT CRANE HIRE LIMITED,PROLIFT CRANE HIRE LIMITED,"6 Sawmill Road, Riverhead, 0892, NEW ZEALAND",0892,address_for_service,-36.757309989425,174.574668498046,address_web
Languages International Limited,LANGUAGES INTERNATIONAL LIMITED,LANGUAGES INTERNATIONAL LIMITED,"27 Princes Street, Auckland Central, Auckland, 1010, NEW ZEALAND",1010,address_for_service,-36.849428069242,174.768921199613,address_web
Active Survey Limited,ACTIVE SURVEY LIMITED,ACTIVE SURVEY LIMITED,"Unit 2, 485b Rosebank Road, Avondale, Auckland, 1026, NEW ZEALAND",1026,address_for_service,-36.877658486775,174.674589081981,address_web
Fz-Survey Limited,FZ-SURVEY LIMITED,FZ SURVEY LIMITED,"10 Hooten Place, Oteha, Rosedale, 0632, NEW ZEALAND",0632,address_for_service,-36.724248955364,174.717851185574,address_web
Bluegrass Contracting Limited,BLUEGRASS CONTRACTING LIMITED,BLUEGRASS CONTRACTING LIMITED,"223 Tepoi South Rd., Matamata., Waikato, 3473, NEW ZEALAND",3473,public_address,-37.8357,175.774,address_web
Aj Furniture Limited,AJ FURNITURE LIMITED,AJ FURNITURE LIMITED,"1271 Amohia Street, Rotorua, Rotorua, 3010, NEW ZEALAND",3010,address_for_service,-38.138457112079,176.248587787267,address_web
Icar Auto Nz Limited,ICAR AUTO NZ LIMITED,ICAR AUTO NZ LIMITED,"106b Stoddard Road, Wesley, Auckland, 1041, NEW ZEALAND",1041,address_for_service,-36.90437586869,174.728347920932,address_web
Coatesville Investment Limited,COATESVILLE INVESTMENT LIMITED,COATESVILLE INVESTMENT LIMITED,"286 Coatesville-riverhead Highway, Rd 3, Coatesville, 0793, NEW ZEALAND",0793,address_for_service,-36.716486977747,174.641204380729,address_web
GREENLAND DAIRY LIMITED,GREENLAND DAIRY LIMITED,GREENLAND DAIRY LIMITED,"504 Wairakei Road, Burnside, Christchurch, 8053, NEW ZEALAND",8053,address_for_service,-43.489776199446,172.569406960425,address_web
CBROS TECHNOLOGIES LIMITED,CBROS TECHNOLOGIES LIMITED,CBROS TECHNOLOGIES LIMITED,"31 Church Street, Devonport, Auckland, 0624, NEW ZEALAND",0624,address_for_service,-36.827516014142,174.802081684955,address_web
Dennis Industries Limited,DENNIS INDUSTRIES LIMITED,DENNIS INDUSTRIES LIMITED,"29 The Mall, Cromwell, Cromwell, 9310, NEW ZEALAND",9310,address_for_service,-45.037527561671,169.19732875619,address_web
Success Group Limited,SUCCESS GROUP LIMITED,SUCCESS GROUP LIMITED,"Ground Floor, 660 Victoria Street, Hamilton Central, Hamilton, 3204, NEW ZEALAND",3204,address_for_service,-37.783261308346,175.279653526507,address_web
Balle Bros Growers Limited,BALLE BROS GROWERS LIMITED,BALLE BROS GROWERS LIMITED,"166 Heights Road, Rd 1, Pukekohe, 2676, NEW ZEALAND",2676,address_for_service,-37.182388946965,174.88452080399,address_web
MAC Group Limited,MAC GROUP LIMITED,MAC GROUP LIMITED,"130 St Georges Bay Road, Parnell, Auckland, 1052, NEW ZEALAND",1052,address_for_service,-36.850678397739,174.782036279692,address_web
TAMAHERE COUNTRY CLUB CARE CENTRE LIMITED,TAMAHERE COUNTRY CLUB CARE CENTRE LIMITED,TAMAHERE COUNTRY CLUB CARE CENTRE LIMITED,"104 Tamahere Drive, Rd 3, Hamilton, 3283, NEW ZEALAND",3283,address_for_service,-37.837474913261,175.360048215538,address_web
Tech cycle limited,TECH CYCLE LIMITED,TECH CYCLE LIMITED,"13 Dodds Road, Kaitaia, 0482, NEW ZEALAND",0482,address_for_service,-35.121026577019,173.351755781729,address_web
Brotherhood Enterprises Limited,BROTHERHOOD ENTERPRISES LIMITED,BROTHERHOOD ENTERPRISES LIMITED,"54 Bellville Drive, Clendon Park, Auckland, 2103, NEW ZEALAND",2103,address_for_service,-37.032958975543,174.858052597781,address_web
Amazon Data Services New Zealand Limited,AMAZON DATA SERVICES NEW ZEALAND LIMITED,AMAZON DATA SERVICES NEW ZEALAND LIMITED,"18 Viaduct Harbour Avenue, Auckland Central, Auckland, 1010, NEW ZEALAND",1010,address_for_service,-36.845360876455,174.757768574524,address_web
The Health Lab Limited,THE HEALTH LAB LIMITED,THE HEALTH LAB LIMITED,"44 Westpoint Drive, Hobsonville, Auckland, 0618, NEW ZEALAND",0618,public_address,-36.804961821439,174.633892092218,address_web
New Bright Party Supply Limited,NEW BRIGHT PARTY SUPPLY LIMITED,NEW BRIGHT PARTY SUPPLY LIMITED,"26 Summit Drive, Torbay, Auckland, 0630, NEW ZEALAND",0630,address_for_service,-36.699402773147,174.740478803748,address_web
Fix It Roofing Limited,FIX IT ROOFING LIMITED,FIX IT ROOFING LIMITED,"14 Ihakara Court, Paraparaumu, Paraparaumu, 5032, NEW ZEALAND",5032,public_address,-40.919459136631,175.000848292839,address_web
VOLGA SYSTEMS LIMITED,VOLGA SYSTEMS LIMITED,VOLGA SYSTEMS LIMITED,"Level 31, Vero Centre 48 Shortland Street, Auckland, Cbd, Auckland, 1010, NEW ZEALAND",1010,address_for_service,-36.846818363688,174.768363216318,address_web
Zealandria Dairy Limited,ZEALANDRIA DAIRY LIMITED,ZEALANDRIA DAIRY LIMITED,"418,wreys Bush Nightcaps Highway,rd 1, Otautau, 9689, NEW ZEALAND",9689,address_for_service,-45.982235272407,168.060816446348,address_web
Trufold Products 2021 Limited,TRUFOLD PRODUCTS (2021) LIMITED,TRUFOLD PRODUCTS 2021 LIMITED,"13 Mclean Street, Tauranga, Tauranga, 3110, NEW ZEALAND",3110,address_for_service,-37.680697197877,176.169102953826,address_web
Mulford Holdings Limited,MULFORD HOLDINGS LIMITED,MULFORD HOLDINGS LIMITED,"139 Moray Place, Dunedin Central, Dunedin, 9016, NEW ZEALAND",9016,address_for_service,-45.873323127568,170.501600499498,address_web
Plantsman Limited,PLANTSMAN LIMITED,PLANTSMAN LIMITED,"Suite 26, 18 Lambie Drive, Papatoetoe, Auckland, 2104, NEW ZEALAND",2104,address_for_service,-36.986006697168,174.873588455316,address_web
H & R Transport Limited,H & R TRANSPORT LIMITED,H R TRANSPORT LIMITED,"11 Elrita Place, Conifer Grove, Takanini, 2112, NEW ZEALAND",2112,address_for_service,-37.05037493587,174.907392670823,address_web
EriksensGlobal Limited,ERIKSENSGLOBAL LIMITED,ERIKSENSGLOBAL LIMITED,"2 Burns Avenue, Takapuna, Auckland, 0622, NEW ZEALAND",0622,address_for_service,-36.791647252064,174.7709532244,address_web
Sohal associates limited,SOHAL ASSOCIATES LIMITED,SOHAL ASSOCIATES LIMITED,"8 Bartells Drive, Goodwood Heights, Auckland, 2105, NEW ZEALAND",2105,address_for_service,-36.987894050306,174.901033069427,address_web
Rosefield Farms Limited,ROSEFIELD FARMS LIMITED,ROSEFIELD FARMS LIMITED,"221 High Street, Solway, Masterton, 5810, NEW ZEALAND",5810,address_for_service,-40.962367398181,175.623590171162,address_web
Scratchpad Limited,SCRATCHPAD LIMITED,SCRATCHPAD LIMITED,"907c Mount Eden Road, Mount Eden, Auckland, 1024, NEW ZEALAND",1024,address_for_service,-36.897662946441,174.757026440817,address_web
Two Rivers Limited,TWO RIVERS LIMITED,TWO RIVERS LIMITED,"54 Cass Street, Ashburton, Ashburton, 7700, NEW ZEALAND",7700,address_for_service,-43.90659441422,171.748881000909,address_web
GLG Painting & Decorating Limited,GLG PAINTING & DECORATING LIMITED,GLG PAINTING DECORATING LIMITED,"23 Delaney Drive, Stokes Valley, Lower Hutt, 5019, NEW ZEALAND",5019,address_for_service,-41.18176098968,174.977460268409,address_web
MANKIRAT ENTERPRISES LIMITED,MANKIRAT ENTERPRISES LIMITED,MANKIRAT ENTERPRISES LIMITED,"1 Gisborne Road, Te Puke, Te Puke, 3119, NEW ZEALAND",3119,address_for_service,-37.792313135132,176.316539708672,address_web
HIGHVELD PASTURES LIMITED,HIGHVELD PASTURES LIMITED,HIGHVELD PASTURES LIMITED,"504 Wairakei Road, Burnside, Christchurch, 8053, NEW ZEALAND",8053,address_for_service,-43.489776199446,172.569406960425,address_web
CPA GARDEN LIMITED,CPA GARDEN LIMITED,CPA GARDEN LIMITED,"75 Griggs Road, East Tamaki Heights, Auckland, 2016, NEW ZEALAND",2016,address_for_service,-36.944359073855,174.932561179126,address_web
K&T Dairying Limited,K&T DAIRYING LIMITED,K T DAIRYING LIMITED,"66 High Street, Leeston, Leeston, 7632, NEW ZEALAND",7632,address_for_service,-43.7667,172.3,original
Heartland Technology Limited,HEARTLAND TECHNOLOGY LIMITED,HEARTLAND TECHNOLOGY LIMITED,"285 Havelock Street, Ashburton, 7700, NEW ZEALAND",7700,address_for_service,-43.904866317243,171.750559477019,address_web
H S Riar Enterprises Limited,H S RIAR ENTERPRISES LIMITED,H S RIAR ENTERPRISES LIMITED,"144 Weston Road, St Albans, Christchurch, 8052, NEW ZEALAND",8052,address_for_service,-43.503713921413,172.625529837155,address_web
South West Shearing Limited,SOUTH WEST SHEARING LIMITED,SOUTH WEST SHEARING LIMITED,"43 Gabriel's Gully Road, Rd3, Lawrence, 9093, NEW ZEALAND",9093,address_for_service,-45.908999991406,169.684286026119,original
SERCO New Zealand Limited,SERCO NEW ZEALAND LIMITED,SERCO NEW ZEALAND LIMITED,"Level 4, Kpmg Centre, 18 Viaduct Harbour Avenue, Auckland, 1142, NEW ZEALAND",1142,address_for_service,-36.845360876455,174.757768574524,address_web
Orwell Dairies Limited,ORWELL DAIRIES LIMITED,ORWELL DAIRIES LIMITED,"Level 4, 7 Winston Avenue, Papanui, Christchurch, 8053, NEW ZEALAND",8053,address_for_service,-43.496050514977,172.607555767804,address_web
N AND N CONTRACTING LIMITED,N AND N CONTRACTING LIMITED,N AND N CONTRACTING LIMITED,"15 Marion Crescent, Papamoa Beach, Papamoa, 3118, NEW ZEALAND",3118,address_for_service,-37.715403599532,176.311421383317,address_web
BODCO LIMITED,BODCO LIMITED,BODCO LIMITED,"10 Kaimiro Street, Pukete, Hamilton, 3200, NEW ZEALAND",3200,public_address,-37.738495449414,175.22856004314,address_web
Huapai Truck Painters Limited,HUAPAI TRUCK PAINTERS LIMITED,HUAPAI TRUCK PAINTERS LIMITED,"22 Catherine Street, Henderson, Auckland, 0612, NEW ZEALAND",0612,address_for_service,-36.88273549434,174.632978791562,address_web
RX Plastics Limited,RX PLASTICS LIMITED,RX PLASTICS LIMITED,"19 Maronan Road, Rd 8, Ashburton, 7778, NEW ZEALAND",7778,public_address,-43.924981753307,171.708343854038,address_web
Assura Software Limited,ASSURA SOFTWARE LIMITED,ASSURA SOFTWARE LIMITED,"Unit 2, 48 Acheron Drive, Middleton, Christchurch, 8024, NEW ZEALAND",8024,public_address,-43.539264967451,172.586007990216,address_web
ASOON ELEVATOR LIMITED,ASOON ELEVATOR LIMITED,ASOON ELEVATOR LIMITED,"74 Clonbern Road, Remuera, Auckland, 1050, Nzl, Remuera, Auckland, 1050, NEW ZEALAND",1050,address_for_service,-36.885535045008,174.795463585665,address_web
Poneke Bakery Limited,PONEKE BAKERY LIMITED,PONEKE BAKERY LIMITED,"Level 1 South British Building, 326 Lambton Quay, Wellington, 6011, NEW ZEALAND",6011,address_for_service,-41.285432098101,174.775547932263,address_web
Arbuda Trading Limited,ARBUDA TRADING LIMITED,ARBUDA TRADING LIMITED,"30 Platinum Drive, Wigram, Christchurch, 8025, NEW ZEALAND",8025,address_for_service,-43.560072078165,172.552020546306,address_web
VIP Steel Limited,VIP STEEL LIMITED,VIP STEEL LIMITED,"Level 2, 83 Victoria Street, Christchurch, 8013, NEW ZEALAND",8013,address_for_service,-43.525184669311,172.631468164097,address_web
Smulders Farming Limited,SMULDERS FARMING LIMITED,SMULDERS FARMING LIMITED,"44 York Place, Dunedin Central, Dunedin, 9016, NEW ZEALAND",9016,address_for_service,-45.871830478251,170.501972739818,address_web
Shield Group Limited,SHIELD GROUP LIMITED,SHIELD GROUP LIMITED,"Level 3, 507 Lake Road, Takapuna, Auckland, 0622, NEW ZEALAND",0622,address_for_service,-36.788491675066,174.771493689516,address_web
YAN JIN CONSTRUCTION LIMITED,YAN JIN CONSTRUCTION LIMITED,YAN JIN CONSTRUCTION LIMITED,"77 Ridgedale Road, Silverdale, Silverdale, 0932, NEW ZEALAND",0932,address_for_service,-36.60770973964,174.667974251633,address_web
Genera Limited,GENERA LIMITED,GENERA LIMITED,"Unit 4, 18 Aerodrome Road, Mount Maunganui, Mount Maunganui, 3116, NEW ZEALAND",3116,public_address,-37.66408460106,176.203231381347,address_web
GAURAV ENTERPRISE LIMITED,GAURAV ENTERPRISE LIMITED,GAURAV ENTERPRISE LIMITED,"39 Baverstock Road, Flat Bush, Auckland, 2016, NEW ZEALAND",2016,address_for_service,-36.956017001977,174.915661166848,address_web
Wellbeing Physiotherapy Limited,WELLBEING PHYSIOTHERAPY LIMITED,WELLBEING PHYSIOTHERAPY LIMITED,"772a Manukau Road, Royal Oak, Northcote, Auckland, 1061, NEW ZEALAND",1061,address_for_service,-36.91116589909,174.776178083744,address_web
Perfect Master Service Limited,PERFECT MASTER SERVICE LIMITED,PERFECT MASTER SERVICE LIMITED,"35 Golden Morning Drive, Albany Heights, Auckland, 0632, NEW ZEALAND",0632,address_for_service,-36.717366323209,174.696911934156,address_web
Mata Gujri Transport Limited,MATA GUJRI TRANSPORT LIMITED,MATA GUJRI TRANSPORT LIMITED,"40 Cairnsvale Rise, Manurewa, Auckland, 2105, NEW ZEALAND",2105,address_for_service,-37.014845598962,174.912022498861,address_web
Waiareka Dairy Limited,WAIAREKA DAIRY LIMITED,WAIAREKA DAIRY LIMITED,"Level 2, 114 Wrights Road, Addington, Christchurch, 8024, NEW ZEALAND",8024,address_for_service,-43.542650250505,172.596236678118,address_web
Heritage Property Maintenance Limited,HERITAGE PROPERTY MAINTENANCE LIMITED,HERITAGE PROPERTY MAINTENANCE LIMITED,"99 Onerahi Road, Onerahi, Whangarei, 0110, NEW ZEALAND",0110,address_for_service,-35.747080061467,174.367489141583,address_web
Metalways Limited,METALWAYS LIMITED,METALWAYS LIMITED,"11 Akatea Road, Glendene, Auckland, 0632, NEW ZEALAND",0632,address_for_service,-36.889307069075,174.659951513009,address_web
Dickey Boats Limited,DICKEY BOATS LIMITED,DICKEY BOATS LIMITED,"Business H Q, 308 Queen Street East, Hastings, 4122, NEW ZEALAND",4122,address_for_service,-39.643538761718,176.847123064495,address_web
Hanhuey Farming Limited,HANHUEY FARMING LIMITED,HANHUEY FARMING LIMITED,"32 Oteramika Road, Rockdale, Invercargill, 9812, NEW ZEALAND",9812,address_for_service,-46.417574224257,168.401121212356,address_web
ClockworX Limited,CLOCKWORX LIMITED,CLOCKWORX LIMITED,"130 St Georges Bay Road, Parnell, Auckland, 1052, NEW ZEALAND",1052,address_for_service,-36.850678397739,174.782036279692,address_web
BS NIjjar Limited,BS NIJJAR LIMITED,BS NIJJAR LIMITED,"28 Manawa Road, Papamoa Beach, Papamoa, 3118, NEW ZEALAND",3118,address_for_service,-37.719075627494,176.319544956237,address_web
Aseco Limited,ASECO LIMITED,ASECO LIMITED,"30 Barry's Point Road, Takapuna, Auckland, 0622, NEW ZEALAND",0622,registered_office,-36.792562388253,174.765638678691,address_web
TBC Painting & Tiling Limited,TBC PAINTING & TILING LIMITED,TBC PAINTING TILING LIMITED,"133 Otaika Road, Raumanga, Whangarei, 0110, NEW ZEALAND",0110,address_for_service,-35.74107719387,174.309119914802,address_web
Specialised Transport (2011) Limited,SPECIALISED TRANSPORT (2011) LIMITED,SPECIALISED TRANSPORT 2011 LIMITED,"Unit 30, 15 Accent Drive, East Tamaki, Auckland, 2013, NEW ZEALAND",2013,public_address,-36.952079477232,174.90059477971,address_web
Wild Wheat Limited,WILD WHEAT LIMITED,WILD WHEAT LIMITED,"58 Ascot Road, Mangere, Auckland, 2022, NEW ZEALAND",2022,public_address,-36.971896559453,174.781231868445,address_web
NKAY Dairies Limited,NKAY DAIRIES LIMITED,NKAY DAIRIES LIMITED,"Level 1, 56 Bank Street, Timaru, 7910, NEW ZEALAND",7910,address_for_service,-44.395768947152,171.249852744513,address_web
Dematic Pty Ltd,DEMATIC PTY LTD,DEMATIC PTY LTD,"1c Lady Ruby Drive, East Tamaki, Auckland, 2013, NEW ZEALAND",2013,registered_office,-36.949239814165,174.892874711609,address_web
J Ghuman Holdings Limited,J GHUMAN HOLDINGS LIMITED,J GHUMAN HOLDINGS LIMITED,"584 Boundry Road, Rd 3, Winton, 9683, NEW ZEALAND",9683,address_for_service,-46.154246803445,168.151521630656,address_web
Boyden Farms Limited,BOYDEN FARMS LIMITED,BOYDEN FARMS LIMITED,"43 Chapel Street, Masterton, 5810, NEW ZEALAND",5810,registered_office,-40.94853218689,175.661751299939,address_web
Dior Limited,DIOR LIMITED,DIOR LIMITED,"109 Tuwharetoa Street, Taupo, Taupo, 3330, NEW ZEALAND",3330,address_for_service,-38.690109303542,176.075228152832,address_web
Kauricrest Sporthorses Limited,KAURICREST SPORTHORSES LIMITED,KAURICREST SPORTHORSES LIMITED,"614 Hinds Arundel Road, Rd 5, Ashburton, 7775, NEW ZEALAND",7775,address_for_service,-43.992000014517,171.492334414037,address_web
Fernwood Dairies Limited,FERNWOOD DAIRIES LIMITED,FERNWOOD DAIRIES LIMITED,"287-293 Durham Street North, Christchurch, 8013, NEW ZEALAND",8013,address_for_service,-43.529248718884,172.633396253285,address_web
Golden Clover Limited,GOLDEN CLOVER LIMITED,GOLDEN CLOVER LIMITED,"14 Sue Dow Lane, Aotea, Porirua, 5024, NEW ZEALAND",5024,registered_office,-41.1285666661,174.846785978808,address_web
Jean Muller New Zealand Limited,JEAN MULLER (NEW ZEALAND) LIMITED,JEAN MULLER NEW ZEALAND LIMITED,"56 Hurlstone Drive, Waiwhakaiho, New Plymouth, 4312, NEW ZEALAND",4312,address_for_service,-39.04665430032,174.120095257703,address_web
Tekapo Springs Limited,TEKAPO SPRINGS LIMITED,TEKAPO SPRINGS LIMITED,"300 Lakeside Drive, Lake Tekapo, 7945, NEW ZEALAND",7945,address_for_service,-44.0064,170.4803,original
Ethereum Network Limited,ETHEREUM NETWORK LIMITED,ETHEREUM NETWORK LIMITED,"56 Bushlands Park Drive, Albany, Auckland, 0632, NEW ZEALAND",0632,address_for_service,-36.736557947815,174.714251074341,address_web
Caldwell & Highsted Limited,CALDWELL & HIGHSTED LIMITED,CALDWELL HIGHSTED LIMITED,"25 Mailer Street, Mornington, Dunedin, 9011, NEW ZEALAND",9011,address_for_service,-45.881182712447,170.481020747908,address_web
Smartly Limited,SMARTLY LIMITED,SMARTLY LIMITED,"Level 12, 55 Featherston Street, Wellington, 6011, NEW ZEALAND",6011,address_for_service,-41.280009216294,174.779144439278,address_web
Goldtech Engineering Limited,GOLDTECH ENGINEERING LIMITED,GOLDTECH ENGINEERING LIMITED,"Unit 8, 93 Main South Road, Sockburn, Christchurch, 8042, NEW ZEALAND",8042,registered_office,-43.535947871178,172.560560280718,address_web
